{"type": "FeatureCollection", "features": [{"type": "Feature", "geometry": {"type": "Point", "coordinates": [-86.7413889135708, 36.17256252014188]}, "properties": {"STREET": "1613 B Lillian St", "PERMIT_DATE": "2018-05-24", "PERMIT_NUMBER": "2018029697", "ADU_TYPE": null, "ACCESSORY_STRUCTURE_TYPE": null, "OWNER_NAME": "MARSH, LORIANNE S.", "CONTRACTOR_BIZ_NAME_ORIGINAL": "Campbell, Kenneth Contr", "FEES_JSON": 155.0, "STATUS_NORMALIZED": "In Review"}}, {"type": "Feature", "geometry": {"type": "Point", "coordinates": [-86.79173418257349, 36.092091665234676]}, "properties": {"STREET": "1009 B Glendale Ln", "PERMIT_DATE": "2011-12-16", "PERMIT_NUMBER": "201131534", "ADU_TYPE": null, "ACCESSORY_STRUCTURE_TYPE": null, "OWNER_NAME": "GLENDALE LANE TRUST", "CONTRACTOR_BIZ_NAME_ORIGINAL": "Morgan, Michael J Dba Mr. Sparky Nashville -east 615v", "FEES_JSON": 76.76, "STATUS_NORMALIZED": "In Review"}}, {"type": "Feature", "geometry": {"type": "Point", "coordinates": [-92.50866538030476, 34.153465657507276]}, "properties": {"STREET": "1708 B 14Th Ave N", "PERMIT_DATE": "2024-09-06", "PERMIT_NUMBER": "2024081226", "ADU_TYPE": null, "ACCESSORY_STRUCTURE_TYPE": null, "OWNER_NAME": "TAYLOR, BRANDON & DAMITA BECK-", "CONTRACTOR_BIZ_NAME_ORIGINAL": "What The Plumb, Llc", "FEES_JSON": 86.65, "STATUS_NORMALIZED": "Active"}}, {"type": "Feature", "geometry": {"type": "Point", "coordinates": [-86.87632531363656, 36.27047035158064]}, "properties": {"STREET": "6231 B Freudeman Rd", "PERMIT_DATE": "2024-01-04", "PERMIT_NUMBER": "2024001045", "ADU_TYPE": null, "ACCESSORY_STRUCTURE_TYPE": "garage", "OWNER_NAME": "BETTES, WILLIAM", "CONTRACTOR_BIZ_NAME_ORIGINAL": "Jacob The Electrician Llc", "FEES_JSON": 84.4, "STATUS_NORMALIZED": "In Review"}}, {"type": "Feature", "geometry": {"type": "Point", "coordinates": [-92.50866538030476, 34.153465657507276]}, "properties": {"STREET": "2025 B Rosecliff Dr", "PERMIT_DATE": "2023-03-07", "PERMIT_NUMBER": "2022069602", "ADU_TYPE": null, "ACCESSORY_STRUCTURE_TYPE": "garage", "OWNER_NAME": "CASSARA, THOMAS A. & SUSAN H. REVOCABLE TRUST", "CONTRACTOR_BIZ_NAME_ORIGINAL": "Kaneco Builders, Kaneco Asset Management Llc Dba", "FEES_JSON": 188.74, "STATUS_NORMALIZED": "In Review"}}, {"type": "Feature", "geometry": {"type": "Point", "coordinates": [-86.73303218891066, 36.204175034332714]}, "properties": {"STREET": "1214 Mcgavock Pike", "PERMIT_DATE": "2017-05-30", "PERMIT_NUMBER": "2017035347", "ADU_TYPE": null, "ACCESSORY_STRUCTURE_TYPE": "garage", "OWNER_NAME": "HELMS WHITTEMORE FAMILY REVOCABLE TRUST", "CONTRACTOR_BIZ_NAME_ORIGINAL": "Self Contractor Residential (see Applicant Information)", "FEES_JSON": 698.6, "STATUS_NORMALIZED": "In Review"}}, {"type": "Feature", "geometry": {"type": "Point", "coordinates": [-86.69411224008397, 36.058524030969295]}, "properties": {"STREET": "4037 Keeley Dr", "PERMIT_DATE": "2021-11-19", "PERMIT_NUMBER": "2021074477", "ADU_TYPE": "basement", "ACCESSORY_STRUCTURE_TYPE": null, "OWNER_NAME": "RIOS, NORBERTO JARQUIN & ET AL", "CONTRACTOR_BIZ_NAME_ORIGINAL": "Self Contractor Residential (see Applicant Information)", "FEES_JSON": 173.14, "STATUS_NORMALIZED": "Inactive"}}, {"type": "Feature", "geometry": {"type": "Point", "coordinates": [-92.50866538030476, 34.153465657507276]}, "properties": {"STREET": "903 B Coral Rd", "PERMIT_DATE": "2023-06-12", "PERMIT_NUMBER": "2023038594", "ADU_TYPE": null, "ACCESSORY_STRUCTURE_TYPE": "garage", "OWNER_NAME": "MATTICE, KEVIN L. & RORY", "CONTRACTOR_BIZ_NAME_ORIGINAL": "Voltage Solutions", "FEES_JSON": 304.95, "STATUS_NORMALIZED": "In Review"}}, {"type": "Feature", "geometry": {"type": "Point", "coordinates": [-86.74126703239659, 36.177566454619075]}, "properties": {"STREET": "1604 Forrest Ave", "PERMIT_DATE": "2022-12-01", "PERMIT_NUMBER": "2022074439", "ADU_TYPE": null, "ACCESSORY_STRUCTURE_TYPE": null, "OWNER_NAME": "SMITH, TALISA P.", "CONTRACTOR_BIZ_NAME_ORIGINAL": null, "FEES_JSON": 0.0, "STATUS_NORMALIZED": "Active"}}, {"type": "Feature", "geometry": {"type": "Point", "coordinates": [-86.82546657219939, 36.10743793654015]}, "properties": {"STREET": "2418 Abbott Martin Rd", "PERMIT_DATE": "2009-12-10", "PERMIT_NUMBER": "200928451", "ADU_TYPE": null, "ACCESSORY_STRUCTURE_TYPE": null, "OWNER_NAME": "GLYNN, JOSEPH & JACKIE W.", "CONTRACTOR_BIZ_NAME_ORIGINAL": "Amt Construction, Poole, Tony Dba", "FEES_JSON": 462.5, "STATUS_NORMALIZED": "Inactive"}}, {"type": "Feature", "geometry": {"type": "Point", "coordinates": [-86.82546657219939, 36.10743793654015]}, "properties": {"STREET": "2418 Abbott Martin Rd", "PERMIT_DATE": "2009-12-30", "PERMIT_NUMBER": "200930854", "ADU_TYPE": null, "ACCESSORY_STRUCTURE_TYPE": null, "OWNER_NAME": "GLYNN, JOSEPH & JACKIE W.", "CONTRACTOR_BIZ_NAME_ORIGINAL": "Amt Construction, Poole, Tony Dba", "FEES_JSON": 112.0, "STATUS_NORMALIZED": "In Review"}}, {"type": "Feature", "geometry": {"type": "Point", "coordinates": [-86.8553327953202, 36.146553371996866]}, "properties": {"STREET": "443 Patina Cir", "PERMIT_DATE": "2010-04-27", "PERMIT_NUMBER": "201009764", "ADU_TYPE": null, "ACCESSORY_STRUCTURE_TYPE": null, "OWNER_NAME": null, "CONTRACTOR_BIZ_NAME_ORIGINAL": "Franklin Heating & Cooling Inc", "FEES_JSON": 106.0, "STATUS_NORMALIZED": "In Review"}}, {"type": "Feature", "geometry": {"type": "Point", "coordinates": [-92.50866538030476, 34.153465657507276]}, "properties": {"STREET": "8778 Hester Beasley Rd", "PERMIT_DATE": "2020-06-09", "PERMIT_NUMBER": "2020028165", "ADU_TYPE": null, "ACCESSORY_STRUCTURE_TYPE": "storage, garage", "OWNER_NAME": "TOSCANO, DEAN & CHERYL", "CONTRACTOR_BIZ_NAME_ORIGINAL": "A D Development/homeworx", "FEES_JSON": 578.6, "STATUS_NORMALIZED": "In Review"}}, {"type": "Feature", "geometry": {"type": "Point", "coordinates": [-92.50866538030476, 34.153465657507276]}, "properties": {"STREET": "1000 B N 5Th St", "PERMIT_DATE": "2021-09-01", "PERMIT_NUMBER": "2021007923", "ADU_TYPE": null, "ACCESSORY_STRUCTURE_TYPE": null, "OWNER_NAME": "FURSTENBURG, ROGER & NANCY", "CONTRACTOR_BIZ_NAME_ORIGINAL": "Dillards Renovation And Repairs", "FEES_JSON": 663.3, "STATUS_NORMALIZED": "In Review"}}, {"type": "Feature", "geometry": {"type": "Point", "coordinates": [-86.73552314114045, 36.17807428643545]}, "properties": {"STREET": "1804 Lakehurst Dr", "PERMIT_DATE": "2015-05-22", "PERMIT_NUMBER": "201400451", "ADU_TYPE": null, "ACCESSORY_STRUCTURE_TYPE": null, "OWNER_NAME": "SMITH, REBECCA JEAN", "CONTRACTOR_BIZ_NAME_ORIGINAL": "Bootstrap Architecture + Construction Llc", "FEES_JSON": 0.0, "STATUS_NORMALIZED": "Inactive"}}, {"type": "Feature", "geometry": {"type": "Point", "coordinates": [-92.50866538030476, 34.153465657507276]}, "properties": {"STREET": "306 Richardson Ave", "PERMIT_DATE": "2020-02-14", "PERMIT_NUMBER": "2020010123", "ADU_TYPE": null, "ACCESSORY_STRUCTURE_TYPE": "garage", "OWNER_NAME": "SCOTT, TIM ALLEN", "CONTRACTOR_BIZ_NAME_ORIGINAL": "Bentley's Air Conditioning Mt. Juliet Llc", "FEES_JSON": 76.72, "STATUS_NORMALIZED": "In Review"}}, {"type": "Feature", "geometry": {"type": "Point", "coordinates": [-86.96404590733182, 36.0558027965491]}, "properties": {"STREET": "6752 Cold Stream Dr", "PERMIT_DATE": "2002-10-11", "PERMIT_NUMBER": "200208773", "ADU_TYPE": null, "ACCESSORY_STRUCTURE_TYPE": null, "OWNER_NAME": "MURRAY, DONALD WILLIAM III & WHITE, KATHLEEN ANNE", "CONTRACTOR_BIZ_NAME_ORIGINAL": null, "FEES_JSON": 25.0, "STATUS_NORMALIZED": "In Review"}}, {"type": "Feature", "geometry": {"type": "Point", "coordinates": [-92.50866538030476, 34.153465657507276]}, "properties": {"STREET": "110 B Westhampton Pl #Guest Hous", "PERMIT_DATE": "2021-06-08", "PERMIT_NUMBER": "2021035703", "ADU_TYPE": null, "ACCESSORY_STRUCTURE_TYPE": null, "OWNER_NAME": "WALLACE, JOHNSON B.,JR. ET UX", "CONTRACTOR_BIZ_NAME_ORIGINAL": "Cothron Electric Llc", "FEES_JSON": 76.72, "STATUS_NORMALIZED": "In Review"}}, {"type": "Feature", "geometry": {"type": "Point", "coordinates": [-92.50866538030476, 34.153465657507276]}, "properties": {"STREET": "3049 Runabout Dr", "PERMIT_DATE": "2018-07-18", "PERMIT_NUMBER": "2018041746", "ADU_TYPE": "basement", "ACCESSORY_STRUCTURE_TYPE": "garage", "OWNER_NAME": "WU, MORTON W.", "CONTRACTOR_BIZ_NAME_ORIGINAL": "Martinez, Roberto & Catalina Moreno", "FEES_JSON": 101.75, "STATUS_NORMALIZED": "Inactive"}}, {"type": "Feature", "geometry": {"type": "Point", "coordinates": [-92.50866538030476, 34.153465657507276]}, "properties": {"STREET": "3621 B Richland Ave", "PERMIT_DATE": "2020-08-26", "PERMIT_NUMBER": "2020045118", "ADU_TYPE": null, "ACCESSORY_STRUCTURE_TYPE": "garage", "OWNER_NAME": "PACE, WARD R. & MCDONALD MICHEL A. LIVING TRUST", "CONTRACTOR_BIZ_NAME_ORIGINAL": "Ford, Mike Custom Builders Llc", "FEES_JSON": 600.09, "STATUS_NORMALIZED": "In Review"}}, {"type": "Feature", "geometry": {"type": "Point", "coordinates": [-92.50866538030476, 34.153465657507276]}, "properties": {"STREET": "860 B Westcott Ln", "PERMIT_DATE": "2024-07-08", "PERMIT_NUMBER": "2024060989", "ADU_TYPE": null, "ACCESSORY_STRUCTURE_TYPE": "garage", "OWNER_NAME": "REGENT HOMES, LLC", "CONTRACTOR_BIZ_NAME_ORIGINAL": "Morgan Electric Co Inc", "FEES_JSON": 84.4, "STATUS_NORMALIZED": "Active"}}, {"type": "Feature", "geometry": {"type": "Point", "coordinates": [-86.78436937190757, 36.11964357483428]}, "properties": {"STREET": "919 B2 Kirkwood Ave", "PERMIT_DATE": "2024-04-23", "PERMIT_NUMBER": "2024024455", "ADU_TYPE": null, "ACCESSORY_STRUCTURE_TYPE": "garage", "OWNER_NAME": "915 KIRKWOOD, GP", "CONTRACTOR_BIZ_NAME_ORIGINAL": "Native Construction Llc", "FEES_JSON": 560.09, "STATUS_NORMALIZED": "Active"}}, {"type": "Feature", "geometry": {"type": "Point", "coordinates": [-92.50866538030476, 34.153465657507276]}, "properties": {"STREET": "866 B Westcott Ln", "PERMIT_DATE": "2024-07-08", "PERMIT_NUMBER": "2024060992", "ADU_TYPE": null, "ACCESSORY_STRUCTURE_TYPE": "carport", "OWNER_NAME": "REGENT HOMES, LLC", "CONTRACTOR_BIZ_NAME_ORIGINAL": "Morgan Electric Co Inc", "FEES_JSON": 84.4, "STATUS_NORMALIZED": "Active"}}, {"type": "Feature", "geometry": {"type": "Point", "coordinates": [-92.50866538030476, 34.153465657507276]}, "properties": {"STREET": "706 B Stockell St", "PERMIT_DATE": "2024-10-02", "PERMIT_NUMBER": "2024088939", "ADU_TYPE": null, "ACCESSORY_STRUCTURE_TYPE": "garage, deck", "OWNER_NAME": "DUG HOLLOW, LLC", "CONTRACTOR_BIZ_NAME_ORIGINAL": "Benchmark Plumbing Inc", "FEES_JSON": 180.05, "STATUS_NORMALIZED": "Active"}}, {"type": "Feature", "geometry": {"type": "Point", "coordinates": [-92.50866538030476, 34.153465657507276]}, "properties": {"STREET": "503 N 14Th St", "PERMIT_DATE": "2021-05-10", "PERMIT_NUMBER": "2021029267", "ADU_TYPE": null, "ACCESSORY_STRUCTURE_TYPE": "garage", "OWNER_NAME": "SELLERS, DAVID RICHARD & JULIE LYNNE", "CONTRACTOR_BIZ_NAME_ORIGINAL": "Jc Emmanuel Hvac Llc", "FEES_JSON": 147.31, "STATUS_NORMALIZED": "In Review"}}, {"type": "Feature", "geometry": {"type": "Point", "coordinates": [-92.50866538030476, 34.153465657507276]}, "properties": {"STREET": "4811 B Overcrest Dr", "PERMIT_DATE": "2024-07-15", "PERMIT_NUMBER": "2024020801", "ADU_TYPE": null, "ACCESSORY_STRUCTURE_TYPE": "garage", "OWNER_NAME": "COBB, BLAKE & MULLIN -  GONZALEZ, SOPHIA", "CONTRACTOR_BIZ_NAME_ORIGINAL": "Hbg Construction Llc", "FEES_JSON": 616.36, "STATUS_NORMALIZED": "Active"}}, {"type": "Feature", "geometry": {"type": "Point", "coordinates": [-86.6438393921016, 36.24431477117152]}, "properties": {"STREET": "132 Park Cir", "PERMIT_DATE": "2024-06-21", "PERMIT_NUMBER": "2024023646", "ADU_TYPE": null, "ACCESSORY_STRUCTURE_TYPE": null, "OWNER_NAME": "PRIDEMORE, BILL & DENISE", "CONTRACTOR_BIZ_NAME_ORIGINAL": "Self Contractor Residential (see Applicant Information)", "FEES_JSON": 402.55, "STATUS_NORMALIZED": "Active"}}, {"type": "Feature", "geometry": {"type": "Point", "coordinates": [-86.76702493959912, 36.06671139914474]}, "properties": {"STREET": "631 Crieve Rd", "PERMIT_DATE": "2023-10-17", "PERMIT_NUMBER": "2023079443", "ADU_TYPE": null, "ACCESSORY_STRUCTURE_TYPE": null, "OWNER_NAME": "WONG, MITCHELL DANIEL & STEPHANIE", "CONTRACTOR_BIZ_NAME_ORIGINAL": "Ncube Industries 1981, Llc", "FEES_JSON": 84.4, "STATUS_NORMALIZED": "In Review"}}, {"type": "Feature", "geometry": {"type": "Point", "coordinates": [-86.76116765980531, 36.19223442972673]}, "properties": {"STREET": "506 Richardson Ave", "PERMIT_DATE": "2015-11-13", "PERMIT_NUMBER": "201550164", "ADU_TYPE": null, "ACCESSORY_STRUCTURE_TYPE": "garage", "OWNER_NAME": "BREWER, MATTHEW SINGLETON", "CONTRACTOR_BIZ_NAME_ORIGINAL": "Max Electric", "FEES_JSON": 147.2, "STATUS_NORMALIZED": "In Review"}}, {"type": "Feature", "geometry": {"type": "Point", "coordinates": [-92.50866538030476, 34.153465657507276]}, "properties": {"STREET": "2510 B Oakland Ave", "PERMIT_DATE": "2021-07-15", "PERMIT_NUMBER": "2021044708", "ADU_TYPE": null, "ACCESSORY_STRUCTURE_TYPE": "garage", "OWNER_NAME": "TALERICO, JUSTIN FREDERICK & ANNA ELIZABETH", "CONTRACTOR_BIZ_NAME_ORIGINAL": "Jones Plumbing Contractors", "FEES_JSON": 158.05, "STATUS_NORMALIZED": "In Review"}}, {"type": "Feature", "geometry": {"type": "Point", "coordinates": [-86.96488801554761, 36.09905124966559]}, "properties": {"STREET": "8004 Quail Creek Rd", "PERMIT_DATE": "2013-04-26", "PERMIT_NUMBER": "201312348", "ADU_TYPE": null, "ACCESSORY_STRUCTURE_TYPE": null, "OWNER_NAME": "MCCAUGHEY, MICHAEL J. & CAROLYN B.", "CONTRACTOR_BIZ_NAME_ORIGINAL": "Ac & H Mechanical Inc", "FEES_JSON": 85.93, "STATUS_NORMALIZED": "Inactive"}}, {"type": "Feature", "geometry": {"type": "Point", "coordinates": [-86.84758114199349, 36.148187731768225]}, "properties": {"STREET": "5005 Nevada Ave", "PERMIT_DATE": "2019-11-01", "PERMIT_NUMBER": "2019067012", "ADU_TYPE": null, "ACCESSORY_STRUCTURE_TYPE": "garage", "OWNER_NAME": "5005 NEVADA TRUST", "CONTRACTOR_BIZ_NAME_ORIGINAL": "Build Nashville Llc", "FEES_JSON": 352.57, "STATUS_NORMALIZED": "In Review"}}, {"type": "Feature", "geometry": {"type": "Point", "coordinates": [-92.50866538030476, 34.153465657507276]}, "properties": {"STREET": "2730 B Couchville Pike", "PERMIT_DATE": "2024-05-15", "PERMIT_NUMBER": "2024041266", "ADU_TYPE": null, "ACCESSORY_STRUCTURE_TYPE": "garage", "OWNER_NAME": "SHARP, STEVEN B. & ALEXANDER B.", "CONTRACTOR_BIZ_NAME_ORIGINAL": "Self Contractor Residential (see Applicant Information)", "FEES_JSON": 200.0, "STATUS_NORMALIZED": "Active"}}, {"type": "Feature", "geometry": {"type": "Point", "coordinates": [-92.50866538030476, 34.153465657507276]}, "properties": {"STREET": "704 B Currey Rd", "PERMIT_DATE": "2024-08-16", "PERMIT_NUMBER": "2024066365", "ADU_TYPE": null, "ACCESSORY_STRUCTURE_TYPE": null, "OWNER_NAME": "HES INVESTMENT LLC", "CONTRACTOR_BIZ_NAME_ORIGINAL": "Aghabee General Contractors", "FEES_JSON": 2992.28, "STATUS_NORMALIZED": "Active"}}, {"type": "Feature", "geometry": {"type": "Point", "coordinates": [-86.82354710374261, 36.162140638076956]}, "properties": {"STREET": "925 B 31St Ave N", "PERMIT_DATE": "2024-05-18", "PERMIT_NUMBER": "2024045312", "ADU_TYPE": null, "ACCESSORY_STRUCTURE_TYPE": "garage", "OWNER_NAME": "THE ELDEST SON, INC.", "CONTRACTOR_BIZ_NAME_ORIGINAL": "Fairway Electric Services Inc", "FEES_JSON": 84.4, "STATUS_NORMALIZED": "In Review"}}, {"type": "Feature", "geometry": {"type": "Point", "coordinates": [-92.50866538030476, 34.153465657507276]}, "properties": {"STREET": "827 B W Argyle Ave", "PERMIT_DATE": "2017-09-14", "PERMIT_NUMBER": "2017055472", "ADU_TYPE": null, "ACCESSORY_STRUCTURE_TYPE": null, "OWNER_NAME": "BOWEN, MEREDITH W. & WILLIAM V. III", "CONTRACTOR_BIZ_NAME_ORIGINAL": null, "FEES_JSON": 1011.75, "STATUS_NORMALIZED": "Active"}}, {"type": "Feature", "geometry": {"type": "Point", "coordinates": [-86.79121109663478, 36.12573005934965]}, "properties": {"STREET": "1402 B Beechwood Ave", "PERMIT_DATE": "2024-11-17", "PERMIT_NUMBER": "2024102861", "ADU_TYPE": null, "ACCESSORY_STRUCTURE_TYPE": "garage", "OWNER_NAME": "1402 BEECHWOOD AVE LLC", "CONTRACTOR_BIZ_NAME_ORIGINAL": "Huffine First Service", "FEES_JSON": 84.4, "STATUS_NORMALIZED": "Active"}}, {"type": "Feature", "geometry": {"type": "Point", "coordinates": [-92.50866538030476, 34.153465657507276]}, "properties": {"STREET": "906 B2 Lischey Ave", "PERMIT_DATE": "2021-01-29", "PERMIT_NUMBER": "2020075189", "ADU_TYPE": null, "ACCESSORY_STRUCTURE_TYPE": "garage", "OWNER_NAME": "ROBERTSON DEVELOPMENT LLC", "CONTRACTOR_BIZ_NAME_ORIGINAL": "Stratus Construction Llc", "FEES_JSON": 489.63, "STATUS_NORMALIZED": "In Review"}}, {"type": "Feature", "geometry": {"type": "Point", "coordinates": [-86.96301535399664, 36.17015261379407]}, "properties": {"STREET": "7838 River Road Pike", "PERMIT_DATE": "2014-01-28", "PERMIT_NUMBER": "201402401", "ADU_TYPE": null, "ACCESSORY_STRUCTURE_TYPE": "garage, barn, storage, shed", "OWNER_NAME": "CHAPMAN, WILLIAM T. IV, TRUSTEE", "CONTRACTOR_BIZ_NAME_ORIGINAL": "Wac Contractors, Llc", "FEES_JSON": 45.2, "STATUS_NORMALIZED": "Inactive"}}, {"type": "Feature", "geometry": {"type": "Point", "coordinates": [-86.68545384590358, 36.22517861116219]}, "properties": {"STREET": "2925 Western Hills Dr", "PERMIT_DATE": "2015-10-23", "PERMIT_NUMBER": "201546413", "ADU_TYPE": null, "ACCESSORY_STRUCTURE_TYPE": "garage, deck, shed", "OWNER_NAME": "KUNKEL, BRUCE & HELEN", "CONTRACTOR_BIZ_NAME_ORIGINAL": "Aaa Plumbing Co Inc", "FEES_JSON": 75.0, "STATUS_NORMALIZED": "In Review"}}, {"type": "Feature", "geometry": {"type": "Point", "coordinates": [-86.89152590243509, 36.141776028972274]}, "properties": {"STREET": "6556 Upton Ln", "PERMIT_DATE": "2024-02-08", "PERMIT_NUMBER": "2024011237", "ADU_TYPE": null, "ACCESSORY_STRUCTURE_TYPE": "carport, garage", "OWNER_NAME": "LOWE, EMILY", "CONTRACTOR_BIZ_NAME_ORIGINAL": "Mitchell Plumbing Inc", "FEES_JSON": 221.68, "STATUS_NORMALIZED": "In Review"}}, {"type": "Feature", "geometry": {"type": "Point", "coordinates": [-86.79988977396866, 36.13092056622131]}, "properties": {"STREET": "2106 B 20Th Ave S", "PERMIT_DATE": "2016-11-18", "PERMIT_NUMBER": "2016064409", "ADU_TYPE": null, "ACCESSORY_STRUCTURE_TYPE": "garage", "OWNER_NAME": "DYBICZ, MICHAEL J.& TAKATS, JUDY A.", "CONTRACTOR_BIZ_NAME_ORIGINAL": "Goddard Construction Co Llc", "FEES_JSON": 413.94, "STATUS_NORMALIZED": "Inactive"}}, {"type": "Feature", "geometry": {"type": "Point", "coordinates": [-92.50866538030476, 34.153465657507276]}, "properties": {"STREET": "107 B Lauderdale Rd", "PERMIT_DATE": "2024-03-27", "PERMIT_NUMBER": "2024027865", "ADU_TYPE": null, "ACCESSORY_STRUCTURE_TYPE": "garage", "OWNER_NAME": "KOZOMARA, VLADO & ABBIE", "CONTRACTOR_BIZ_NAME_ORIGINAL": "The Air Guys Llc", "FEES_JSON": 189.05, "STATUS_NORMALIZED": "In Review"}}, {"type": "Feature", "geometry": {"type": "Point", "coordinates": [-92.50866538030476, 34.153465657507276]}, "properties": {"STREET": "1202 B Stockell St", "PERMIT_DATE": "2021-01-21", "PERMIT_NUMBER": "2020068275", "ADU_TYPE": null, "ACCESSORY_STRUCTURE_TYPE": "garage, porches, decks", "OWNER_NAME": "SASONE, ESTEFANIA", "CONTRACTOR_BIZ_NAME_ORIGINAL": "Legacy South Builders Llc", "FEES_JSON": 606.83, "STATUS_NORMALIZED": "In Review"}}, {"type": "Feature", "geometry": {"type": "Point", "coordinates": [-86.88460162857406, 36.298058797212995]}, "properties": {"STREET": "3930 Bear Hollow Rd", "PERMIT_DATE": "2015-11-19", "PERMIT_NUMBER": "201549965", "ADU_TYPE": null, "ACCESSORY_STRUCTURE_TYPE": null, "OWNER_NAME": "CARVER, SONYA A.", "CONTRACTOR_BIZ_NAME_ORIGINAL": "Self Contractor Residential (see Applicant Information)", "FEES_JSON": 50.0, "STATUS_NORMALIZED": "In Review"}}, {"type": "Feature", "geometry": {"type": "Point", "coordinates": [-92.50866538030476, 34.153465657507276]}, "properties": {"STREET": "1908 C 9Th Ave N", "PERMIT_DATE": "2023-07-18", "PERMIT_NUMBER": "2023026118", "ADU_TYPE": null, "ACCESSORY_STRUCTURE_TYPE": "carport", "OWNER_NAME": "O.I.C. HOMES AT 1908 9TH AVE N", "CONTRACTOR_BIZ_NAME_ORIGINAL": "Blue Chip Investments, Llc", "FEES_JSON": 206.5, "STATUS_NORMALIZED": "In Review"}}, {"type": "Feature", "geometry": {"type": "Point", "coordinates": [-92.50866538030476, 34.153465657507276]}, "properties": {"STREET": "625 B Shelby Ave", "PERMIT_DATE": "2021-12-23", "PERMIT_NUMBER": "2021037490", "ADU_TYPE": null, "ACCESSORY_STRUCTURE_TYPE": null, "OWNER_NAME": "SMITH, ANN N. & ALLAN", "CONTRACTOR_BIZ_NAME_ORIGINAL": "Amac General Contractors Llc", "FEES_JSON": 456.54, "STATUS_NORMALIZED": "In Review"}}, {"type": "Feature", "geometry": {"type": "Point", "coordinates": [-92.50866538030476, 34.153465657507276]}, "properties": {"STREET": "2710 B Oakland Ave", "PERMIT_DATE": "2022-08-29", "PERMIT_NUMBER": "2022058568", "ADU_TYPE": null, "ACCESSORY_STRUCTURE_TYPE": "garage", "OWNER_NAME": "MURRIE, JON W & EDEN J", "CONTRACTOR_BIZ_NAME_ORIGINAL": "Benchmark Plumbing Inc", "FEES_JSON": 122.66, "STATUS_NORMALIZED": "In Review"}}, {"type": "Feature", "geometry": {"type": "Point", "coordinates": [-92.50866538030476, 34.153465657507276]}, "properties": {"STREET": "507 Vernon Winfrey Ave", "PERMIT_DATE": "2017-07-31", "PERMIT_NUMBER": "2017041500", "ADU_TYPE": null, "ACCESSORY_STRUCTURE_TYPE": "garage", "OWNER_NAME": "BARBER, PAUL", "CONTRACTOR_BIZ_NAME_ORIGINAL": "Clearstory Builders Llc", "FEES_JSON": 603.3, "STATUS_NORMALIZED": "In Review"}}, {"type": "Feature", "geometry": {"type": "Point", "coordinates": [-86.73909776315435, 36.18942801185796]}, "properties": {"STREET": "1432 Greenwood Ave", "PERMIT_DATE": "2005-06-23", "PERMIT_NUMBER": "1425854", "ADU_TYPE": null, "ACCESSORY_STRUCTURE_TYPE": null, "OWNER_NAME": "KENNEDY, CRAIG B. & KIMBERLY J.", "CONTRACTOR_BIZ_NAME_ORIGINAL": null, "FEES_JSON": 50.0, "STATUS_NORMALIZED": "Inactive"}}, {"type": "Feature", "geometry": {"type": "Point", "coordinates": [-92.50866538030476, 34.153465657507276]}, "properties": {"STREET": "2119 B Elliott Ave", "PERMIT_DATE": "2019-03-05", "PERMIT_NUMBER": "2019004414", "ADU_TYPE": null, "ACCESSORY_STRUCTURE_TYPE": "garage, storage", "OWNER_NAME": "WILLIAMS, BRADLEY D. & COURTNEY, BRIAN A.", "CONTRACTOR_BIZ_NAME_ORIGINAL": "Birchwood Constructors", "FEES_JSON": 635.07, "STATUS_NORMALIZED": "In Review"}}, {"type": "Feature", "geometry": {"type": "Point", "coordinates": [-86.7717387495901, 36.18314324700742]}, "properties": {"STREET": "700 N 2Nd St", "PERMIT_DATE": "2023-05-16", "PERMIT_NUMBER": "2023032106", "ADU_TYPE": null, "ACCESSORY_STRUCTURE_TYPE": "garage", "OWNER_NAME": "GRIFFIN, ERIC & ALEXANDRA", "CONTRACTOR_BIZ_NAME_ORIGINAL": "Cothron Electric Llc", "FEES_JSON": 140.66, "STATUS_NORMALIZED": "In Review"}}, {"type": "Feature", "geometry": {"type": "Point", "coordinates": [-86.7439856240773, 36.17086197371002]}, "properties": {"STREET": "1507 Shelby Ave", "PERMIT_DATE": "2018-04-27", "PERMIT_NUMBER": "2018018866", "ADU_TYPE": null, "ACCESSORY_STRUCTURE_TYPE": null, "OWNER_NAME": "PRESTON, AUBREY S.", "CONTRACTOR_BIZ_NAME_ORIGINAL": null, "FEES_JSON": 0.0, "STATUS_NORMALIZED": "In Review"}}, {"type": "Feature", "geometry": {"type": "Point", "coordinates": [-92.50866538030476, 34.153465657507276]}, "properties": {"STREET": "3704 B Whitland Ave", "PERMIT_DATE": "2020-04-27", "PERMIT_NUMBER": "2020026228", "ADU_TYPE": null, "ACCESSORY_STRUCTURE_TYPE": "garage", "OWNER_NAME": "BLOOMING, LANCE &  JESSICA BEUGEN", "CONTRACTOR_BIZ_NAME_ORIGINAL": "Cardwells Electric", "FEES_JSON": 120.15, "STATUS_NORMALIZED": "In Review"}}, {"type": "Feature", "geometry": {"type": "Point", "coordinates": [-92.50866538030476, 34.153465657507276]}, "properties": {"STREET": "839 B Acklen Ave", "PERMIT_DATE": "2024-01-02", "PERMIT_NUMBER": "2024000133", "ADU_TYPE": null, "ACCESSORY_STRUCTURE_TYPE": "garage", "OWNER_NAME": "WILKINS FAMILY TRUST, THE", "CONTRACTOR_BIZ_NAME_ORIGINAL": "Derryberry's Air Conditioning & Appliance Services, Inc", "FEES_JSON": 85.52, "STATUS_NORMALIZED": "In Review"}}, {"type": "Feature", "geometry": {"type": "Point", "coordinates": [-86.78680828368444, 36.12264729378288]}, "properties": {"STREET": "1004 B Halcyon Ave", "PERMIT_DATE": "2024-02-06", "PERMIT_NUMBER": "2024010515", "ADU_TYPE": null, "ACCESSORY_STRUCTURE_TYPE": null, "OWNER_NAME": "BOLLAND, DAVID S & WENDY A LIVING TRUST", "CONTRACTOR_BIZ_NAME_ORIGINAL": "Music City Handymen Llc", "FEES_JSON": 140.66, "STATUS_NORMALIZED": "In Review"}}, {"type": "Feature", "geometry": {"type": "Point", "coordinates": [-86.73870460216662, 36.177758718668464]}, "properties": {"STREET": "1708 B Forrest Ave", "PERMIT_DATE": "2020-01-30", "PERMIT_NUMBER": "2020000035", "ADU_TYPE": null, "ACCESSORY_STRUCTURE_TYPE": null, "OWNER_NAME": "HEALY, BRIANNA & HEALY, PETER", "CONTRACTOR_BIZ_NAME_ORIGINAL": null, "FEES_JSON": 1280.8, "STATUS_NORMALIZED": "Active"}}, {"type": "Feature", "geometry": {"type": "Point", "coordinates": [-86.83353203304112, 36.14385583843078]}, "properties": {"STREET": "4009 B Utah Ave", "PERMIT_DATE": "2023-08-17", "PERMIT_NUMBER": "2023057903", "ADU_TYPE": null, "ACCESSORY_STRUCTURE_TYPE": "garage", "OWNER_NAME": "WRIGLEY, IAN", "CONTRACTOR_BIZ_NAME_ORIGINAL": "R & M Electric", "FEES_JSON": 84.4, "STATUS_NORMALIZED": "In Review"}}, {"type": "Feature", "geometry": {"type": "Point", "coordinates": [-92.50866538030476, 34.153465657507276]}, "properties": {"STREET": "874 B Westcott Ln", "PERMIT_DATE": "2024-08-02", "PERMIT_NUMBER": "2024070073", "ADU_TYPE": null, "ACCESSORY_STRUCTURE_TYPE": "carport", "OWNER_NAME": "REGENT HOMES, LLC", "CONTRACTOR_BIZ_NAME_ORIGINAL": "Morgan Electric Co Inc", "FEES_JSON": 84.4, "STATUS_NORMALIZED": "Active"}}, {"type": "Feature", "geometry": {"type": "Point", "coordinates": [-86.80975522439458, 36.101374789027176]}, "properties": {"STREET": "1799 Warfield Dr", "PERMIT_DATE": "2011-05-05", "PERMIT_NUMBER": "201110441", "ADU_TYPE": null, "ACCESSORY_STRUCTURE_TYPE": "garage, porches", "OWNER_NAME": "HAYES, JAMES P.", "CONTRACTOR_BIZ_NAME_ORIGINAL": "Craighead Development Llc", "FEES_JSON": 907.14, "STATUS_NORMALIZED": "In Review"}}, {"type": "Feature", "geometry": {"type": "Point", "coordinates": [-86.81954864221122, 36.13693394464728]}, "properties": {"STREET": "212 Fairfax Ave", "PERMIT_DATE": "2022-03-30", "PERMIT_NUMBER": "2022008984", "ADU_TYPE": null, "ACCESSORY_STRUCTURE_TYPE": "garage", "OWNER_NAME": "BEAUCHAMP, CAROLINE GOBBELL & LUKE ADDISON", "CONTRACTOR_BIZ_NAME_ORIGINAL": "Maison Construction & Realty, Llc", "FEES_JSON": 702.13, "STATUS_NORMALIZED": "In Review"}}, {"type": "Feature", "geometry": {"type": "Point", "coordinates": [-86.73359882673451, 36.28813630270985]}, "properties": {"STREET": "325 Northwind Dr", "PERMIT_DATE": "2023-01-04", "PERMIT_NUMBER": "2022086568", "ADU_TYPE": null, "ACCESSORY_STRUCTURE_TYPE": "shed", "OWNER_NAME": "DEDO, ANDREW & KASEY RUTH LOWRY", "CONTRACTOR_BIZ_NAME_ORIGINAL": "Self Contractor Residential (see Applicant Information)", "FEES_JSON": 64.96, "STATUS_NORMALIZED": "Active"}}, {"type": "Feature", "geometry": {"type": "Point", "coordinates": [-92.50866538030476, 34.153465657507276]}, "properties": {"STREET": "4311 B Utah Ave", "PERMIT_DATE": "2023-06-13", "PERMIT_NUMBER": "2023031865", "ADU_TYPE": null, "ACCESSORY_STRUCTURE_TYPE": "garage", "OWNER_NAME": "PINNEY, ALESIA LEE & BROWN, JACKIE", "CONTRACTOR_BIZ_NAME_ORIGINAL": "Native Construction Llc", "FEES_JSON": 520.0, "STATUS_NORMALIZED": "In Review"}}, {"type": "Feature", "geometry": {"type": "Point", "coordinates": [-86.68253623706374, 36.06657767822557]}, "properties": {"STREET": "2135 Antioch Pike", "PERMIT_DATE": "2007-07-23", "PERMIT_NUMBER": "200734982", "ADU_TYPE": null, "ACCESSORY_STRUCTURE_TYPE": null, "OWNER_NAME": "SALIH, HASHIM JABBAR & MOHAMMED, HAWRE", "CONTRACTOR_BIZ_NAME_ORIGINAL": "Kerr Electric Inc", "FEES_JSON": 50.0, "STATUS_NORMALIZED": "In Review"}}, {"type": "Feature", "geometry": {"type": "Point", "coordinates": [-86.67704012888798, 36.23592103655186]}, "properties": {"STREET": "809 Evergreen Trl", "PERMIT_DATE": "2008-03-28", "PERMIT_NUMBER": "200811217", "ADU_TYPE": "basement", "ACCESSORY_STRUCTURE_TYPE": null, "OWNER_NAME": "RUSHING, KESHA R.", "CONTRACTOR_BIZ_NAME_ORIGINAL": "Odum Electric Co", "FEES_JSON": 95.4, "STATUS_NORMALIZED": "In Review"}}, {"type": "Feature", "geometry": {"type": "Point", "coordinates": [-92.50866538030476, 34.153465657507276]}, "properties": {"STREET": "5209 A2 Indiana Ave", "PERMIT_DATE": "2019-08-13", "PERMIT_NUMBER": "2019048564", "ADU_TYPE": null, "ACCESSORY_STRUCTURE_TYPE": "garage", "OWNER_NAME": "LACY, JANEL ANGELA & EVAN THOMAS", "CONTRACTOR_BIZ_NAME_ORIGINAL": "Archer Plumbing Llc", "FEES_JSON": 76.72, "STATUS_NORMALIZED": "In Review"}}, {"type": "Feature", "geometry": {"type": "Point", "coordinates": [-86.80035633960424, 36.126898510541615]}, "properties": {"STREET": "1900 Beechwood Ave", "PERMIT_DATE": "2021-08-13", "PERMIT_NUMBER": "2021052259", "ADU_TYPE": null, "ACCESSORY_STRUCTURE_TYPE": "garage", "OWNER_NAME": "STARK, SHANNON & LANG, WILLIAM", "CONTRACTOR_BIZ_NAME_ORIGINAL": "Frick, M J Co Inc", "FEES_JSON": 76.72, "STATUS_NORMALIZED": "In Review"}}, {"type": "Feature", "geometry": {"type": "Point", "coordinates": [-92.50866538030476, 34.153465657507276]}, "properties": {"STREET": "2402 11Th Ave S", "PERMIT_DATE": "2024-01-19", "PERMIT_NUMBER": "2023083570", "ADU_TYPE": null, "ACCESSORY_STRUCTURE_TYPE": null, "OWNER_NAME": "CATIZONE, MICHAEL J", "CONTRACTOR_BIZ_NAME_ORIGINAL": "Superior Remodeling Llc", "FEES_JSON": 712.01, "STATUS_NORMALIZED": "Active"}}, {"type": "Feature", "geometry": {"type": "Point", "coordinates": [-86.78564834869768, 36.12857203189957]}, "properties": {"STREET": "929 Lawrence Ave", "PERMIT_DATE": "2024-08-19", "PERMIT_NUMBER": "2024070770", "ADU_TYPE": null, "ACCESSORY_STRUCTURE_TYPE": "shed", "OWNER_NAME": "HAYNES, DAVID B.", "CONTRACTOR_BIZ_NAME_ORIGINAL": "Self Contractor Residential (see Applicant Information)", "FEES_JSON": 70.59, "STATUS_NORMALIZED": "Active"}}, {"type": "Feature", "geometry": {"type": "Point", "coordinates": [-86.63456593454929, 36.09785783172094]}, "properties": {"STREET": "3001 Ned Shelton Rd", "PERMIT_DATE": "2018-01-31", "PERMIT_NUMBER": "2017073812", "ADU_TYPE": null, "ACCESSORY_STRUCTURE_TYPE": "garage, porches, decks", "OWNER_NAME": "DUCK, HOWARD BETHEL & RADEL, SHANNON KAY", "CONTRACTOR_BIZ_NAME_ORIGINAL": "Drees Premier Homes Inc", "FEES_JSON": 2479.69, "STATUS_NORMALIZED": "In Review"}}, {"type": "Feature", "geometry": {"type": "Point", "coordinates": [-92.50866538030476, 34.153465657507276]}, "properties": {"STREET": "2600 C Bronte Ave", "PERMIT_DATE": "2020-12-08", "PERMIT_NUMBER": "2020060991", "ADU_TYPE": null, "ACCESSORY_STRUCTURE_TYPE": null, "OWNER_NAME": "MOORING, CHRISTI L. & BUGG, ANITA J.", "CONTRACTOR_BIZ_NAME_ORIGINAL": "Self Contractor Residential (see Applicant Information)", "FEES_JSON": 184.95, "STATUS_NORMALIZED": "In Review"}}, {"type": "Feature", "geometry": {"type": "Point", "coordinates": [-86.7899935552462, 36.17672092943474]}, "properties": {"STREET": "512 Monroe St", "PERMIT_DATE": "2023-06-21", "PERMIT_NUMBER": "2023040823", "ADU_TYPE": null, "ACCESSORY_STRUCTURE_TYPE": "porch", "OWNER_NAME": "LOCKE, KEVIN & COLLEEN", "CONTRACTOR_BIZ_NAME_ORIGINAL": "R & M Electric", "FEES_JSON": 84.4, "STATUS_NORMALIZED": "In Review"}}, {"type": "Feature", "geometry": {"type": "Point", "coordinates": [-86.73369322610371, 36.076882172140344]}, "properties": {"STREET": "4800 Overcrest Dr", "PERMIT_DATE": "2010-03-15", "PERMIT_NUMBER": "1732766", "ADU_TYPE": null, "ACCESSORY_STRUCTURE_TYPE": "garage", "OWNER_NAME": "RICHARDSON, BENJAMIN DAVID JR & MARY LOVE", "CONTRACTOR_BIZ_NAME_ORIGINAL": "Self Contractor Residential (see Applicant Information)", "FEES_JSON": 170.71, "STATUS_NORMALIZED": "Inactive"}}, {"type": "Feature", "geometry": {"type": "Point", "coordinates": [-92.50866538030476, 34.153465657507276]}, "properties": {"STREET": "1231 B 6Th Ave N", "PERMIT_DATE": "2021-03-06", "PERMIT_NUMBER": "2021013432", "ADU_TYPE": null, "ACCESSORY_STRUCTURE_TYPE": "garage, balcony", "OWNER_NAME": "MONDAY, WENDY CLAIRE & SPANGLER, JOHN THOMAS", "CONTRACTOR_BIZ_NAME_ORIGINAL": "Music City Handymen Llc", "FEES_JSON": 157.54, "STATUS_NORMALIZED": "In Review"}}, {"type": "Feature", "geometry": {"type": "Point", "coordinates": [-92.50866538030476, 34.153465657507276]}, "properties": {"STREET": "201 Hancock St", "PERMIT_DATE": "2024-10-24", "PERMIT_NUMBER": "2024065925", "ADU_TYPE": null, "ACCESSORY_STRUCTURE_TYPE": "garage", "OWNER_NAME": "HOMEWARD CUSTOM HOMES, LLC", "CONTRACTOR_BIZ_NAME_ORIGINAL": "Homeward Custom Homes, Llc", "FEES_JSON": 690.5, "STATUS_NORMALIZED": "Active"}}, {"type": "Feature", "geometry": {"type": "Point", "coordinates": [-86.85051128926355, 36.14546423937177]}, "properties": {"STREET": "100 53Rd Ave N", "PERMIT_DATE": "2024-01-23", "PERMIT_NUMBER": "2024005894", "ADU_TYPE": null, "ACCESSORY_STRUCTURE_TYPE": null, "OWNER_NAME": "UTAH HOLDINGS, LLC", "CONTRACTOR_BIZ_NAME_ORIGINAL": "Jones Plumbing Contractors", "FEES_JSON": 159.79, "STATUS_NORMALIZED": "In Review"}}, {"type": "Feature", "geometry": {"type": "Point", "coordinates": [-92.50866538030476, 34.153465657507276]}, "properties": {"STREET": "921 Spain Ave", "PERMIT_DATE": "2021-05-18", "PERMIT_NUMBER": "2021031156", "ADU_TYPE": null, "ACCESSORY_STRUCTURE_TYPE": "porches, decks", "OWNER_NAME": "AASR INVESTORS, LLC", "CONTRACTOR_BIZ_NAME_ORIGINAL": "M & M Electric & Mechanical Llc", "FEES_JSON": 148.18, "STATUS_NORMALIZED": "In Review"}}, {"type": "Feature", "geometry": {"type": "Point", "coordinates": [-86.74696395107958, 36.17956611158716]}, "properties": {"STREET": "1213 Gartland Ave", "PERMIT_DATE": "2020-11-18", "PERMIT_NUMBER": "2020068727", "ADU_TYPE": null, "ACCESSORY_STRUCTURE_TYPE": null, "OWNER_NAME": "WESTERHOLD, JOSKUA DAVID", "CONTRACTOR_BIZ_NAME_ORIGINAL": null, "FEES_JSON": 0.0, "STATUS_NORMALIZED": "In Review"}}, {"type": "Feature", "geometry": {"type": "Point", "coordinates": [-86.86424170719746, 36.10049625846691]}, "properties": {"STREET": "117 Blackburn Ave", "PERMIT_DATE": "2019-01-02", "PERMIT_NUMBER": "2019000094", "ADU_TYPE": null, "ACCESSORY_STRUCTURE_TYPE": null, "OWNER_NAME": "ROLFE, ROBERT JR.", "CONTRACTOR_BIZ_NAME_ORIGINAL": null, "FEES_JSON": 0.0, "STATUS_NORMALIZED": "In Review"}}, {"type": "Feature", "geometry": {"type": "Point", "coordinates": [-92.50866538030476, 34.153465657507276]}, "properties": {"STREET": "7970 B Old Springfield Pike", "PERMIT_DATE": "2019-08-13", "PERMIT_NUMBER": "2019048541", "ADU_TYPE": null, "ACCESSORY_STRUCTURE_TYPE": "garage, storage", "OWNER_NAME": "RAY, STEVEN KEITH", "CONTRACTOR_BIZ_NAME_ORIGINAL": "American Commercial Industrial Electric Llc", "FEES_JSON": 107.22, "STATUS_NORMALIZED": "In Review"}}, {"type": "Feature", "geometry": {"type": "Point", "coordinates": [-86.67572697878798, 36.01102276184183]}, "properties": {"STREET": "14141 Old Hickory Blvd", "PERMIT_DATE": "2023-10-22", "PERMIT_NUMBER": "2023081338", "ADU_TYPE": null, "ACCESSORY_STRUCTURE_TYPE": "garage", "OWNER_NAME": "TORRES, NELSON & GLORIA E.", "CONTRACTOR_BIZ_NAME_ORIGINAL": "Plumbers Of Nashville Inc", "FEES_JSON": 84.4, "STATUS_NORMALIZED": "In Review"}}, {"type": "Feature", "geometry": {"type": "Point", "coordinates": [-86.79665967150208, 36.12533405411432]}, "properties": {"STREET": "1704 Sweetbriar Ave", "PERMIT_DATE": "2022-08-26", "PERMIT_NUMBER": "2022058041", "ADU_TYPE": null, "ACCESSORY_STRUCTURE_TYPE": null, "OWNER_NAME": "MACCAULEY, FRANCIE G. & JOHN", "CONTRACTOR_BIZ_NAME_ORIGINAL": "G Electric", "FEES_JSON": 164.86, "STATUS_NORMALIZED": "In Review"}}, {"type": "Feature", "geometry": {"type": "Point", "coordinates": [-92.50866538030476, 34.153465657507276]}, "properties": {"STREET": "503 N 14Th St", "PERMIT_DATE": "2021-08-30", "PERMIT_NUMBER": "2021055721", "ADU_TYPE": null, "ACCESSORY_STRUCTURE_TYPE": "garage", "OWNER_NAME": "SELLERS, DAVID RICHARD & JULIE LYNNE", "CONTRACTOR_BIZ_NAME_ORIGINAL": "Nashville Electricians, Llc", "FEES_JSON": 76.72, "STATUS_NORMALIZED": "In Review"}}, {"type": "Feature", "geometry": {"type": "Point", "coordinates": [-92.50866538030476, 34.153465657507276]}, "properties": {"STREET": "2206 B Belmont Blvd", "PERMIT_DATE": "2020-01-06", "PERMIT_NUMBER": "2019071671", "ADU_TYPE": null, "ACCESSORY_STRUCTURE_TYPE": "garage", "OWNER_NAME": "PONTIKES, NICHOLAS K. & GWEN A.", "CONTRACTOR_BIZ_NAME_ORIGINAL": "Hudson Builders Llc", "FEES_JSON": 907.14, "STATUS_NORMALIZED": "Inactive"}}, {"type": "Feature", "geometry": {"type": "Point", "coordinates": [-86.71505900317806, 36.197482132552366]}, "properties": {"STREET": "1915 Berkshire Dr", "PERMIT_DATE": "2019-12-24", "PERMIT_NUMBER": "2019078270", "ADU_TYPE": null, "ACCESSORY_STRUCTURE_TYPE": null, "OWNER_NAME": "GREEN, JONATHAN & ARGOW, KARINA", "CONTRACTOR_BIZ_NAME_ORIGINAL": "Rhodes, Josh Plumbing", "FEES_JSON": 76.72, "STATUS_NORMALIZED": "In Review"}}, {"type": "Feature", "geometry": {"type": "Point", "coordinates": [-86.82922817944872, 36.13214280003391]}, "properties": {"STREET": "3730 Whitland Ave", "PERMIT_DATE": "2010-11-09", "PERMIT_NUMBER": "201037872", "ADU_TYPE": null, "ACCESSORY_STRUCTURE_TYPE": "garage", "OWNER_NAME": null, "CONTRACTOR_BIZ_NAME_ORIGINAL": "Lifestyle Home Builders Inc", "FEES_JSON": 1438.44, "STATUS_NORMALIZED": "Inactive"}}, {"type": "Feature", "geometry": {"type": "Point", "coordinates": [-86.7425387879274, 36.17369892915275]}, "properties": {"STREET": "1525 Fatherland St", "PERMIT_DATE": "2021-03-07", "PERMIT_NUMBER": "2021009605", "ADU_TYPE": null, "ACCESSORY_STRUCTURE_TYPE": "porch", "OWNER_NAME": "WALKER, JEREMY T. & JULIE R.", "CONTRACTOR_BIZ_NAME_ORIGINAL": "Smoky Mountain Building Pllc", "FEES_JSON": 243.98, "STATUS_NORMALIZED": "Inactive"}}, {"type": "Feature", "geometry": {"type": "Point", "coordinates": [-86.83948938271415, 36.04215882156773]}, "properties": {"STREET": "1621 Old Hickory Blvd", "PERMIT_DATE": "2023-06-15", "PERMIT_NUMBER": "2023039733", "ADU_TYPE": null, "ACCESSORY_STRUCTURE_TYPE": "garage", "OWNER_NAME": "JEANS, GWILYM & KATHERINE", "CONTRACTOR_BIZ_NAME_ORIGINAL": "Ashland Electric Inc", "FEES_JSON": 84.4, "STATUS_NORMALIZED": "In Review"}}, {"type": "Feature", "geometry": {"type": "Point", "coordinates": [-92.50866538030476, 34.153465657507276]}, "properties": {"STREET": "1216 B Forrest Ave", "PERMIT_DATE": "2021-01-08", "PERMIT_NUMBER": "2020067458", "ADU_TYPE": null, "ACCESSORY_STRUCTURE_TYPE": null, "OWNER_NAME": "BURROWS, ROBYN E. & MICHAEL R.", "CONTRACTOR_BIZ_NAME_ORIGINAL": "Building Company Number 7 Inc", "FEES_JSON": 755.07, "STATUS_NORMALIZED": "In Review"}}, {"type": "Feature", "geometry": {"type": "Point", "coordinates": [-86.77410615895293, 36.15941924510554]}, "properties": {"STREET": "205 Demonbreun St", "PERMIT_DATE": "2016-01-04", "PERMIT_NUMBER": "201556270", "ADU_TYPE": null, "ACCESSORY_STRUCTURE_TYPE": "garage", "OWNER_NAME": "205 D OWNER, LLC", "CONTRACTOR_BIZ_NAME_ORIGINAL": "Comfort Systems Usa (mid South) Inc", "FEES_JSON": 1216.0, "STATUS_NORMALIZED": "Inactive"}}, {"type": "Feature", "geometry": {"type": "Point", "coordinates": [-92.50866538030476, 34.153465657507276]}, "properties": {"STREET": "1521 B Forrest Ave", "PERMIT_DATE": "2017-12-19", "PERMIT_NUMBER": "2017080242", "ADU_TYPE": null, "ACCESSORY_STRUCTURE_TYPE": "garage", "OWNER_NAME": "YEAGER, JOSEPH A. & BREANNA N.", "CONTRACTOR_BIZ_NAME_ORIGINAL": "Dec Llc", "FEES_JSON": 98.2, "STATUS_NORMALIZED": "In Review"}}, {"type": "Feature", "geometry": {"type": "Point", "coordinates": [-86.82746033172386, 36.157451582023775]}, "properties": {"STREET": "3400 Indiana Ave", "PERMIT_DATE": "2004-08-11", "PERMIT_NUMBER": "893140", "ADU_TYPE": null, "ACCESSORY_STRUCTURE_TYPE": null, "OWNER_NAME": "MDHA", "CONTRACTOR_BIZ_NAME_ORIGINAL": "Advent Electric Inc", "FEES_JSON": 130.5, "STATUS_NORMALIZED": "In Review"}}, {"type": "Feature", "geometry": {"type": "Point", "coordinates": [-86.7913531744251, 36.1269559840227]}, "properties": {"STREET": "1410 Elmwood Ave", "PERMIT_DATE": "2015-01-09", "PERMIT_NUMBER": "201500638", "ADU_TYPE": null, "ACCESSORY_STRUCTURE_TYPE": "garage, porch", "OWNER_NAME": "MURPHY, ROBERT & KELLY REVOCABLE TRUST", "CONTRACTOR_BIZ_NAME_ORIGINAL": "Bison Home Builders Inc", "FEES_JSON": 492.48, "STATUS_NORMALIZED": "In Review"}}, {"type": "Feature", "geometry": {"type": "Point", "coordinates": [-92.50866538030476, 34.153465657507276]}, "properties": {"STREET": "1604 B Franklin Ave", "PERMIT_DATE": "2019-12-11", "PERMIT_NUMBER": "2019073405", "ADU_TYPE": null, "ACCESSORY_STRUCTURE_TYPE": null, "OWNER_NAME": "RAMIEH, MOSE T. & DUSTI D.", "CONTRACTOR_BIZ_NAME_ORIGINAL": "Odom Construction & Remodeling, Llc", "FEES_JSON": 670.36, "STATUS_NORMALIZED": "Inactive"}}, {"type": "Feature", "geometry": {"type": "Point", "coordinates": [-86.63328817229129, 36.22883790070374]}, "properties": {"STREET": "4006 University Ave", "PERMIT_DATE": "2021-10-12", "PERMIT_NUMBER": "2021065435", "ADU_TYPE": null, "ACCESSORY_STRUCTURE_TYPE": "garage, porches, decks", "OWNER_NAME": "DUFFY, CRAIG & HANNAH", "CONTRACTOR_BIZ_NAME_ORIGINAL": "Music City Handymen Llc", "FEES_JSON": 76.72, "STATUS_NORMALIZED": "In Review"}}, {"type": "Feature", "geometry": {"type": "Point", "coordinates": [-92.50866538030476, 34.153465657507276]}, "properties": {"STREET": "2804 B Oakland Ave", "PERMIT_DATE": "2024-01-05", "PERMIT_NUMBER": "2024001374", "ADU_TYPE": null, "ACCESSORY_STRUCTURE_TYPE": null, "OWNER_NAME": "JBT HOLDINGS LLC", "CONTRACTOR_BIZ_NAME_ORIGINAL": "Comfort Engineered Systems Inc", "FEES_JSON": 166.54, "STATUS_NORMALIZED": "In Review"}}, {"type": "Feature", "geometry": {"type": "Point", "coordinates": [-92.50866538030476, 34.153465657507276]}, "properties": {"STREET": "21 B Waters Ave", "PERMIT_DATE": "2018-07-16", "PERMIT_NUMBER": "2018039149", "ADU_TYPE": null, "ACCESSORY_STRUCTURE_TYPE": "garage", "OWNER_NAME": "EDWARDS-GRAY, HEATHER L. & GRAY, JASON RICHARD", "CONTRACTOR_BIZ_NAME_ORIGINAL": "Self Contractor Residential (see Applicant Information)", "FEES_JSON": 66.89, "STATUS_NORMALIZED": "Inactive"}}, {"type": "Feature", "geometry": {"type": "Point", "coordinates": [-86.87732774504056, 36.144065706377006]}, "properties": {"STREET": "452 Wilclay Dr", "PERMIT_DATE": "2024-02-08", "PERMIT_NUMBER": "2024011203", "ADU_TYPE": null, "ACCESSORY_STRUCTURE_TYPE": "cover", "OWNER_NAME": "WHITE, GARY P & DICK & FREDA (LE)", "CONTRACTOR_BIZ_NAME_ORIGINAL": "Midsouth Electric Inc", "FEES_JSON": 84.4, "STATUS_NORMALIZED": "In Review"}}, {"type": "Feature", "geometry": {"type": "Point", "coordinates": [-86.76137062382314, 36.17039965103833]}, "properties": {"STREET": "600 A Fatherland St", "PERMIT_DATE": "2024-05-17", "PERMIT_NUMBER": "2024045188", "ADU_TYPE": null, "ACCESSORY_STRUCTURE_TYPE": "garage", "OWNER_NAME": "DANIELS, KELCIE", "CONTRACTOR_BIZ_NAME_ORIGINAL": "Huffine First Service", "FEES_JSON": 84.4, "STATUS_NORMALIZED": "Inactive"}}, {"type": "Feature", "geometry": {"type": "Point", "coordinates": [-86.96404590733182, 36.0558027965491]}, "properties": {"STREET": "6752 Cold Stream Dr", "PERMIT_DATE": "2002-10-11", "PERMIT_NUMBER": "200214463", "ADU_TYPE": null, "ACCESSORY_STRUCTURE_TYPE": null, "OWNER_NAME": "MURRAY, DONALD WILLIAM III & WHITE, KATHLEEN ANNE", "CONTRACTOR_BIZ_NAME_ORIGINAL": "Dsi Air Services", "FEES_JSON": 49.5, "STATUS_NORMALIZED": "In Review"}}, {"type": "Feature", "geometry": {"type": "Point", "coordinates": [-92.50866538030476, 34.153465657507276]}, "properties": {"STREET": "2509 B Belmont Blvd", "PERMIT_DATE": "2020-09-16", "PERMIT_NUMBER": "2020051276", "ADU_TYPE": null, "ACCESSORY_STRUCTURE_TYPE": null, "OWNER_NAME": "POE, BRADLEY E.", "CONTRACTOR_BIZ_NAME_ORIGINAL": "Sabia Construction Llc", "FEES_JSON": 712.71, "STATUS_NORMALIZED": "In Review"}}, {"type": "Feature", "geometry": {"type": "Point", "coordinates": [-86.83651483048494, 36.137622954804094]}, "properties": {"STREET": "3932 B Cambridge Ave", "PERMIT_DATE": "2023-07-28", "PERMIT_NUMBER": "2023050356", "ADU_TYPE": null, "ACCESSORY_STRUCTURE_TYPE": "garage, workshop", "OWNER_NAME": "COLEMAN, MICAH A.", "CONTRACTOR_BIZ_NAME_ORIGINAL": "Hitt Electric Company", "FEES_JSON": 214.36, "STATUS_NORMALIZED": "In Review"}}, {"type": "Feature", "geometry": {"type": "Point", "coordinates": [-92.50866538030476, 34.153465657507276]}, "properties": {"STREET": "4709 A2 Michigan Ave", "PERMIT_DATE": "2024-04-17", "PERMIT_NUMBER": "2024023539", "ADU_TYPE": null, "ACCESSORY_STRUCTURE_TYPE": "garage", "OWNER_NAME": "RIDGEMONT HOMES, LLC", "CONTRACTOR_BIZ_NAME_ORIGINAL": "Ridgemont Homes, Llc", "FEES_JSON": 190.0, "STATUS_NORMALIZED": "Active"}}, {"type": "Feature", "geometry": {"type": "Point", "coordinates": [-92.50866538030476, 34.153465657507276]}, "properties": {"STREET": "1007 B Lischey Ave", "PERMIT_DATE": "2023-06-30", "PERMIT_NUMBER": "2023031648", "ADU_TYPE": null, "ACCESSORY_STRUCTURE_TYPE": "garage", "OWNER_NAME": "REED, LAUREN & WILLIAMS, BRAD", "CONTRACTOR_BIZ_NAME_ORIGINAL": "Peiffer, David Dba Home Made Renovations----- Name Change", "FEES_JSON": 1516.6, "STATUS_NORMALIZED": "In Review"}}, {"type": "Feature", "geometry": {"type": "Point", "coordinates": [-92.50866538030476, 34.153465657507276]}, "properties": {"STREET": "8778 Hester Beasley Rd", "PERMIT_DATE": "2021-04-08", "PERMIT_NUMBER": "2021021201", "ADU_TYPE": null, "ACCESSORY_STRUCTURE_TYPE": "storage, garage", "OWNER_NAME": "TOSCANO, DEAN & CHERYL", "CONTRACTOR_BIZ_NAME_ORIGINAL": "Hooper Electric", "FEES_JSON": 76.72, "STATUS_NORMALIZED": "In Review"}}, {"type": "Feature", "geometry": {"type": "Point", "coordinates": [-92.50866538030476, 34.153465657507276]}, "properties": {"STREET": "1710 B Holly St", "PERMIT_DATE": "2018-12-04", "PERMIT_NUMBER": "2018075790", "ADU_TYPE": null, "ACCESSORY_STRUCTURE_TYPE": null, "OWNER_NAME": "MEAD, CHARLES L. & COLLADAY, BRENDA E.", "CONTRACTOR_BIZ_NAME_ORIGINAL": "Msjd Inc Maintenance Systems", "FEES_JSON": 122.76, "STATUS_NORMALIZED": "In Review"}}, {"type": "Feature", "geometry": {"type": "Point", "coordinates": [-86.73906069861728, 36.07552087635119]}, "properties": {"STREET": "210 Wauford Dr", "PERMIT_DATE": "2023-03-01", "PERMIT_NUMBER": "2023011116", "ADU_TYPE": null, "ACCESSORY_STRUCTURE_TYPE": "shed", "OWNER_NAME": "HEIDER, ERIK & MARSDEN, CAMILLE", "CONTRACTOR_BIZ_NAME_ORIGINAL": "Tuff Shed Inc", "FEES_JSON": 76.21, "STATUS_NORMALIZED": "Active"}}, {"type": "Feature", "geometry": {"type": "Point", "coordinates": [-92.50866538030476, 34.153465657507276]}, "properties": {"STREET": "305 B Scott Ave", "PERMIT_DATE": "2020-10-14", "PERMIT_NUMBER": "2020054496", "ADU_TYPE": null, "ACCESSORY_STRUCTURE_TYPE": "garage, storage, shed, porch", "OWNER_NAME": "KONIECZNY, JEFFREY M. & CHRISTINE L.", "CONTRACTOR_BIZ_NAME_ORIGINAL": "Brown, Michael Construction Llc", "FEES_JSON": 1563.29, "STATUS_NORMALIZED": "In Review"}}, {"type": "Feature", "geometry": {"type": "Point", "coordinates": [-86.71033677194694, 36.192632818912635]}, "properties": {"STREET": "2501 Sheridan Rd", "PERMIT_DATE": "2024-09-20", "PERMIT_NUMBER": "2024081527", "ADU_TYPE": null, "ACCESSORY_STRUCTURE_TYPE": "storage", "OWNER_NAME": "GARTON, MICHAEL D.& BOONE, ANGELA L.", "CONTRACTOR_BIZ_NAME_ORIGINAL": "Tuff Shed Inc", "FEES_JSON": 53.71, "STATUS_NORMALIZED": "In Review"}}, {"type": "Feature", "geometry": {"type": "Point", "coordinates": [-86.76993672836902, 36.19145703950505]}, "properties": {"STREET": "1119 B N 2Nd St", "PERMIT_DATE": "2024-12-04", "PERMIT_NUMBER": "2024107581", "ADU_TYPE": null, "ACCESSORY_STRUCTURE_TYPE": "garage", "OWNER_NAME": "BLACKWOLF  INVESTMENT GROUP LLC", "CONTRACTOR_BIZ_NAME_ORIGINAL": "Hutson Bros Plumbing Co Llc", "FEES_JSON": 97.9, "STATUS_NORMALIZED": "Active"}}, {"type": "Feature", "geometry": {"type": "Point", "coordinates": [-86.91458334589257, 36.220112969624026]}, "properties": {"STREET": "5240 B Old Hickory Blvd", "PERMIT_DATE": "2011-09-30", "PERMIT_NUMBER": "201125178", "ADU_TYPE": null, "ACCESSORY_STRUCTURE_TYPE": "garage", "OWNER_NAME": null, "CONTRACTOR_BIZ_NAME_ORIGINAL": "Self Contractor Residential (see Applicant Information)", "FEES_JSON": 77.25, "STATUS_NORMALIZED": "In Review"}}, {"type": "Feature", "geometry": {"type": "Point", "coordinates": [-86.88303259279682, 36.35258534082426]}, "properties": {"STREET": "3534 Baxter Rd", "PERMIT_DATE": "2021-03-31", "PERMIT_NUMBER": "2021019299", "ADU_TYPE": null, "ACCESSORY_STRUCTURE_TYPE": "shed, barn", "OWNER_NAME": "ESTES, KIMBERLY M. & COLEMAN, MICHAEL D.", "CONTRACTOR_BIZ_NAME_ORIGINAL": "Craddock's Electrical Service Inc", "FEES_JSON": 76.72, "STATUS_NORMALIZED": "In Review"}}, {"type": "Feature", "geometry": {"type": "Point", "coordinates": [-86.63869351763601, 36.080621624911444]}, "properties": {"STREET": "2578 Willowbranch Dr", "PERMIT_DATE": "2009-05-20", "PERMIT_NUMBER": "200911521", "ADU_TYPE": null, "ACCESSORY_STRUCTURE_TYPE": null, "OWNER_NAME": "LASTRE, ERNESTO R. & VALDES, KATIA G.", "CONTRACTOR_BIZ_NAME_ORIGINAL": "Self Contractor Residential (see Applicant Information)", "FEES_JSON": 50.0, "STATUS_NORMALIZED": "Inactive"}}, {"type": "Feature", "geometry": {"type": "Point", "coordinates": [-92.50866538030476, 34.153465657507276]}, "properties": {"STREET": "729 B Brownlee Dr", "PERMIT_DATE": "2024-06-19", "PERMIT_NUMBER": "2024055396", "ADU_TYPE": null, "ACCESSORY_STRUCTURE_TYPE": "garage", "OWNER_NAME": "SALAM, DAVID M. & QUINCY L.", "CONTRACTOR_BIZ_NAME_ORIGINAL": "Rk Electric", "FEES_JSON": 120.41, "STATUS_NORMALIZED": "In Review"}}, {"type": "Feature", "geometry": {"type": "Point", "coordinates": [-86.82575438484126, 36.151396314624456]}, "properties": {"STREET": "3327 Park Ave", "PERMIT_DATE": "2018-04-27", "PERMIT_NUMBER": "2018022889", "ADU_TYPE": null, "ACCESSORY_STRUCTURE_TYPE": "garage", "OWNER_NAME": "ATOB PROPERTIES, LLC", "CONTRACTOR_BIZ_NAME_ORIGINAL": "Thunder River Construction, Llc", "FEES_JSON": 555.8, "STATUS_NORMALIZED": "Inactive"}}, {"type": "Feature", "geometry": {"type": "Point", "coordinates": [-92.50866538030476, 34.153465657507276]}, "properties": {"STREET": "1511 B Sweetbriar Ave", "PERMIT_DATE": "2023-05-22", "PERMIT_NUMBER": "2022031033", "ADU_TYPE": null, "ACCESSORY_STRUCTURE_TYPE": "garage", "OWNER_NAME": "MCSPADDEN, MICHAEL SHAWN", "CONTRACTOR_BIZ_NAME_ORIGINAL": "Bradley Construction Group Llc", "FEES_JSON": 1104.47, "STATUS_NORMALIZED": "Active"}}, {"type": "Feature", "geometry": {"type": "Point", "coordinates": [-92.50866538030476, 34.153465657507276]}, "properties": {"STREET": "1513 B Gartland Ave", "PERMIT_DATE": "2020-03-02", "PERMIT_NUMBER": "2020011009", "ADU_TYPE": null, "ACCESSORY_STRUCTURE_TYPE": "garage", "OWNER_NAME": "MCKERNAN, COLLIN", "CONTRACTOR_BIZ_NAME_ORIGINAL": "Gillbuilt Llc", "FEES_JSON": 146.17, "STATUS_NORMALIZED": "In Review"}}, {"type": "Feature", "geometry": {"type": "Point", "coordinates": [-86.77410615895293, 36.15941924510554]}, "properties": {"STREET": "205 Demonbreun St", "PERMIT_DATE": "2016-01-04", "PERMIT_NUMBER": "201556286", "ADU_TYPE": null, "ACCESSORY_STRUCTURE_TYPE": "garage", "OWNER_NAME": "205 D OWNER, LLC", "CONTRACTOR_BIZ_NAME_ORIGINAL": "Comfort Systems Usa (mid South) Inc", "FEES_JSON": 586.0, "STATUS_NORMALIZED": "In Review"}}, {"type": "Feature", "geometry": {"type": "Point", "coordinates": [-86.84960668737558, 36.156102851578694]}, "properties": {"STREET": "5107 Indiana Ave", "PERMIT_DATE": "2015-03-13", "PERMIT_NUMBER": "201508978", "ADU_TYPE": null, "ACCESSORY_STRUCTURE_TYPE": "garage", "OWNER_NAME": "DALMAN, JONATHAN & RUTH BERENDS", "CONTRACTOR_BIZ_NAME_ORIGINAL": "Chilton, David E.", "FEES_JSON": 132.48, "STATUS_NORMALIZED": "In Review"}}, {"type": "Feature", "geometry": {"type": "Point", "coordinates": [-92.50866538030476, 34.153465657507276]}, "properties": {"STREET": "1806 B Allison Pl", "PERMIT_DATE": "2018-07-12", "PERMIT_NUMBER": "2018040594", "ADU_TYPE": null, "ACCESSORY_STRUCTURE_TYPE": "porches", "OWNER_NAME": "SUAREZ FAMILY HOLDINGS, LLC", "CONTRACTOR_BIZ_NAME_ORIGINAL": "Empire Electric Llc", "FEES_JSON": 122.76, "STATUS_NORMALIZED": "In Review"}}, {"type": "Feature", "geometry": {"type": "Point", "coordinates": [-86.82600810232609, 36.113674593443925]}, "properties": {"STREET": "2807 Wimbledon Rd", "PERMIT_DATE": "2023-12-01", "PERMIT_NUMBER": "2023094953", "ADU_TYPE": null, "ACCESSORY_STRUCTURE_TYPE": "garage, porches, decks", "OWNER_NAME": "2807 WIMBLEDON ROAD TRUST", "CONTRACTOR_BIZ_NAME_ORIGINAL": "Barnes Electric, Llc", "FEES_JSON": 140.66, "STATUS_NORMALIZED": "In Review"}}, {"type": "Feature", "geometry": {"type": "Point", "coordinates": [-86.76320659350255, 36.19178930992042]}, "properties": {"STREET": "1115 Lischey Ave", "PERMIT_DATE": "2019-09-06", "PERMIT_NUMBER": "2019053772", "ADU_TYPE": null, "ACCESSORY_STRUCTURE_TYPE": "porch, deck", "OWNER_NAME": "O'BRIEN-EDDY, RACHEL & EDDY, RYAN", "CONTRACTOR_BIZ_NAME_ORIGINAL": "615 Electric Llc", "FEES_JSON": 116.26, "STATUS_NORMALIZED": "In Review"}}, {"type": "Feature", "geometry": {"type": "Point", "coordinates": [-86.73806727914702, 36.173261594969574]}, "properties": {"STREET": "1805 B Fatherland St", "PERMIT_DATE": "2020-09-03", "PERMIT_NUMBER": "2020049209", "ADU_TYPE": null, "ACCESSORY_STRUCTURE_TYPE": null, "OWNER_NAME": "FORD, TRACEY", "CONTRACTOR_BIZ_NAME_ORIGINAL": null, "FEES_JSON": 1280.8, "STATUS_NORMALIZED": "Active"}}, {"type": "Feature", "geometry": {"type": "Point", "coordinates": [-92.50866538030476, 34.153465657507276]}, "properties": {"STREET": "4609 B2 Illinois Ave", "PERMIT_DATE": "2021-04-23", "PERMIT_NUMBER": "2021024192", "ADU_TYPE": null, "ACCESSORY_STRUCTURE_TYPE": "garage", "OWNER_NAME": "LYNCH, DESIREE NICOLE & CARLISLE, MICHAEL CAMERON", "CONTRACTOR_BIZ_NAME_ORIGINAL": "Dedicated Hvac & Electric Llc", "FEES_JSON": 76.72, "STATUS_NORMALIZED": "In Review"}}, {"type": "Feature", "geometry": {"type": "Point", "coordinates": [-92.50866538030476, 34.153465657507276]}, "properties": {"STREET": "1116 B Ordway Pl", "PERMIT_DATE": "2017-08-24", "PERMIT_NUMBER": "2017055415", "ADU_TYPE": null, "ACCESSORY_STRUCTURE_TYPE": null, "OWNER_NAME": "BANDY, JAMES R. & MELANEE G.", "CONTRACTOR_BIZ_NAME_ORIGINAL": "Rippey, Kelly Dba Renaissance Restoration", "FEES_JSON": 470.72, "STATUS_NORMALIZED": "In Review"}}, {"type": "Feature", "geometry": {"type": "Point", "coordinates": [-86.8479283425285, 36.20208990562671]}, "properties": {"STREET": "2004 Jordan Dr", "PERMIT_DATE": "2019-10-24", "PERMIT_NUMBER": "2019065137", "ADU_TYPE": null, "ACCESSORY_STRUCTURE_TYPE": null, "OWNER_NAME": "DIBENEDETTO, EMANUELE & HAMM, HEIDI ET AL", "CONTRACTOR_BIZ_NAME_ORIGINAL": "Self Contractor Residential (see Applicant Information)", "FEES_JSON": 51.15, "STATUS_NORMALIZED": "Inactive"}}, {"type": "Feature", "geometry": {"type": "Point", "coordinates": [-92.50866538030476, 34.153465657507276]}, "properties": {"STREET": "1302 61St Ave N", "PERMIT_DATE": "2018-03-09", "PERMIT_NUMBER": "2018009139", "ADU_TYPE": null, "ACCESSORY_STRUCTURE_TYPE": "garage, porches, decks", "OWNER_NAME": "CARTNER, TERESA", "CONTRACTOR_BIZ_NAME_ORIGINAL": "White Pines Building Group Llc", "FEES_JSON": 1158.99, "STATUS_NORMALIZED": "In Review"}}, {"type": "Feature", "geometry": {"type": "Point", "coordinates": [-86.64465619138458, 36.251739523834814]}, "properties": {"STREET": "1804 B Overton St", "PERMIT_DATE": "2023-06-12", "PERMIT_NUMBER": "2023038585", "ADU_TYPE": null, "ACCESSORY_STRUCTURE_TYPE": null, "OWNER_NAME": "HOOPER, RYAN", "CONTRACTOR_BIZ_NAME_ORIGINAL": "Alegria, Juan Dba Alegria Electric", "FEES_JSON": 120.41, "STATUS_NORMALIZED": "In Review"}}, {"type": "Feature", "geometry": {"type": "Point", "coordinates": [-86.67476426889435, 36.185249107020155]}, "properties": {"STREET": "2913 Fernbrook Ln", "PERMIT_DATE": "2023-04-17", "PERMIT_NUMBER": "2023024515", "ADU_TYPE": null, "ACCESSORY_STRUCTURE_TYPE": "carport, porch", "OWNER_NAME": "FERRELL, GEORGE T. & JULIA C.", "CONTRACTOR_BIZ_NAME_ORIGINAL": "S & S Electric", "FEES_JSON": 267.26, "STATUS_NORMALIZED": "In Review"}}, {"type": "Feature", "geometry": {"type": "Point", "coordinates": [-92.50866538030476, 34.153465657507276]}, "properties": {"STREET": "1302 A2 Pillow St", "PERMIT_DATE": "2024-05-13", "PERMIT_NUMBER": "2024043233", "ADU_TYPE": null, "ACCESSORY_STRUCTURE_TYPE": "garage", "OWNER_NAME": "1302 PILLOW STREET, LLC", "CONTRACTOR_BIZ_NAME_ORIGINAL": "Am Plumbing", "FEES_JSON": 84.4, "STATUS_NORMALIZED": "Active"}}, {"type": "Feature", "geometry": {"type": "Point", "coordinates": [-92.50866538030476, 34.153465657507276]}, "properties": {"STREET": "1405 B Huffine St", "PERMIT_DATE": "2020-10-28", "PERMIT_NUMBER": "2020067533", "ADU_TYPE": null, "ACCESSORY_STRUCTURE_TYPE": "porch", "OWNER_NAME": "MARSCH, PATRICK W & SERFASS, RACHEL", "CONTRACTOR_BIZ_NAME_ORIGINAL": "Bending Chestnut Construction, Inc", "FEES_JSON": 60.99, "STATUS_NORMALIZED": "In Review"}}, {"type": "Feature", "geometry": {"type": "Point", "coordinates": [-86.82920592519507, 36.13207679163062]}, "properties": {"STREET": "3730 Whitland Ave", "PERMIT_DATE": "2012-06-06", "PERMIT_NUMBER": "201216320", "ADU_TYPE": null, "ACCESSORY_STRUCTURE_TYPE": "garage", "OWNER_NAME": "SHERITH ISRAEL SYNAGOGUE, TRS.", "CONTRACTOR_BIZ_NAME_ORIGINAL": "Hitt Electric Company", "FEES_JSON": 76.76, "STATUS_NORMALIZED": "In Review"}}, {"type": "Feature", "geometry": {"type": "Point", "coordinates": [-86.8414445683498, 36.093219141843186]}, "properties": {"STREET": "3810 A Harding Pl", "PERMIT_DATE": "2024-06-20", "PERMIT_NUMBER": "2024056571", "ADU_TYPE": null, "ACCESSORY_STRUCTURE_TYPE": null, "OWNER_NAME": "RIDLEY, CALVIN  & DOMINQUE", "CONTRACTOR_BIZ_NAME_ORIGINAL": "Huffine First Service", "FEES_JSON": 85.52, "STATUS_NORMALIZED": "In Review"}}, {"type": "Feature", "geometry": {"type": "Point", "coordinates": [-86.78633000876445, 36.122042120854765]}, "properties": {"STREET": "925 Halcyon Ave", "PERMIT_DATE": "2023-01-11", "PERMIT_NUMBER": "2022076359", "ADU_TYPE": null, "ACCESSORY_STRUCTURE_TYPE": "garage", "OWNER_NAME": "REESE, MICHAEL & LAUREN", "CONTRACTOR_BIZ_NAME_ORIGINAL": "Elemental Designs Llc", "FEES_JSON": 1657.26, "STATUS_NORMALIZED": "In Review"}}, {"type": "Feature", "geometry": {"type": "Point", "coordinates": [-86.76137062382314, 36.17039965103833]}, "properties": {"STREET": "600 A Fatherland St", "PERMIT_DATE": "2024-04-15", "PERMIT_NUMBER": "2024033362", "ADU_TYPE": null, "ACCESSORY_STRUCTURE_TYPE": "garage", "OWNER_NAME": "DANIELS, KELCIE", "CONTRACTOR_BIZ_NAME_ORIGINAL": "Self Contractor Residential (see Applicant Information)", "FEES_JSON": 751.39, "STATUS_NORMALIZED": "Active"}}, {"type": "Feature", "geometry": {"type": "Point", "coordinates": [-92.50866538030476, 34.153465657507276]}, "properties": {"STREET": "1112 B N 5Th St", "PERMIT_DATE": "2023-09-20", "PERMIT_NUMBER": "2023069509", "ADU_TYPE": null, "ACCESSORY_STRUCTURE_TYPE": "garage", "OWNER_NAME": "SMITH, CHAD & CHRISTOPHER DAWSON", "CONTRACTOR_BIZ_NAME_ORIGINAL": "Concordia Development Inc", "FEES_JSON": 140.66, "STATUS_NORMALIZED": "In Review"}}, {"type": "Feature", "geometry": {"type": "Point", "coordinates": [-86.86605881748176, 36.15300945958196]}, "properties": {"STREET": "526 B Stevenson St", "PERMIT_DATE": "2021-11-16", "PERMIT_NUMBER": "2021070459", "ADU_TYPE": null, "ACCESSORY_STRUCTURE_TYPE": "garage", "OWNER_NAME": "KELLER, MARY ALICE & BRIAN DANIEL", "CONTRACTOR_BIZ_NAME_ORIGINAL": "Self Contractor Residential (see Applicant Information)", "FEES_JSON": 90.5, "STATUS_NORMALIZED": "In Review"}}, {"type": "Feature", "geometry": {"type": "Point", "coordinates": [-86.69046518743768, 36.26692474649388]}, "properties": {"STREET": "206 B Myatt Dr", "PERMIT_DATE": "2016-03-14", "PERMIT_NUMBER": "201611115", "ADU_TYPE": null, "ACCESSORY_STRUCTURE_TYPE": "garage", "OWNER_NAME": "ANKI, WALID & ALEX & MILAD AND MARCO", "CONTRACTOR_BIZ_NAME_ORIGINAL": "Music City Handymen Llc", "FEES_JSON": 76.72, "STATUS_NORMALIZED": "In Review"}}, {"type": "Feature", "geometry": {"type": "Point", "coordinates": [-92.50866538030476, 34.153465657507276]}, "properties": {"STREET": "1406 B N 14Th St", "PERMIT_DATE": "2023-09-20", "PERMIT_NUMBER": "2023069705", "ADU_TYPE": null, "ACCESSORY_STRUCTURE_TYPE": "garage", "OWNER_NAME": "CARTER, TINA", "CONTRACTOR_BIZ_NAME_ORIGINAL": "Griffith & Mckee Llc", "FEES_JSON": 135.04, "STATUS_NORMALIZED": "Active"}}, {"type": "Feature", "geometry": {"type": "Point", "coordinates": [-92.50866538030476, 34.153465657507276]}, "properties": {"STREET": "7477 B Old Charlotte Pike", "PERMIT_DATE": "2024-03-15", "PERMIT_NUMBER": "2024023639", "ADU_TYPE": null, "ACCESSORY_STRUCTURE_TYPE": "garage", "OWNER_NAME": "JAYATHILAKE, KARUNA & KARUNARANTE, JAYANTHI", "CONTRACTOR_BIZ_NAME_ORIGINAL": "Ag Construction", "FEES_JSON": 576.97, "STATUS_NORMALIZED": "In Review"}}, {"type": "Feature", "geometry": {"type": "Point", "coordinates": [-92.50866538030476, 34.153465657507276]}, "properties": {"STREET": "854 B Glen Ave", "PERMIT_DATE": "2024-01-12", "PERMIT_NUMBER": "2024003946", "ADU_TYPE": null, "ACCESSORY_STRUCTURE_TYPE": null, "OWNER_NAME": "SAX, TYLER PAUL & WISEMAN, MADELINE DEVINE", "CONTRACTOR_BIZ_NAME_ORIGINAL": "Clark Heating & Cooling", "FEES_JSON": 84.4, "STATUS_NORMALIZED": "In Review"}}, {"type": "Feature", "geometry": {"type": "Point", "coordinates": [-92.50866538030476, 34.153465657507276]}, "properties": {"STREET": "811 B Shelby Ave", "PERMIT_DATE": "2024-08-27", "PERMIT_NUMBER": "2024056885", "ADU_TYPE": null, "ACCESSORY_STRUCTURE_TYPE": "garage", "OWNER_NAME": "ANDERSON, CHARLES & RIVERA, CHRISTINA", "CONTRACTOR_BIZ_NAME_ORIGINAL": "Artisan Build Construct Llc", "FEES_JSON": 633.24, "STATUS_NORMALIZED": "Active"}}, {"type": "Feature", "geometry": {"type": "Point", "coordinates": [-92.50866538030476, 34.153465657507276]}, "properties": {"STREET": "115 Evanston Ave", "PERMIT_DATE": "2021-07-14", "PERMIT_NUMBER": "2021044525", "ADU_TYPE": null, "ACCESSORY_STRUCTURE_TYPE": "garage, porches", "OWNER_NAME": "FABBRI, GREGG & MARYFRANCES", "CONTRACTOR_BIZ_NAME_ORIGINAL": "Extreme Electric Inc", "FEES_JSON": 158.16, "STATUS_NORMALIZED": "In Review"}}, {"type": "Feature", "geometry": {"type": "Point", "coordinates": [-92.50866538030476, 34.153465657507276]}, "properties": {"STREET": "1607 Sharpe Ave", "PERMIT_DATE": "2019-07-19", "PERMIT_NUMBER": "2019042904", "ADU_TYPE": null, "ACCESSORY_STRUCTURE_TYPE": "garage", "OWNER_NAME": "PICKEREL, KRISTIN HAILEY", "CONTRACTOR_BIZ_NAME_ORIGINAL": "Haskins Heating & Cooling", "FEES_JSON": 129.93, "STATUS_NORMALIZED": "In Review"}}, {"type": "Feature", "geometry": {"type": "Point", "coordinates": [-86.79589165563928, 36.12191894815528]}, "properties": {"STREET": "2806 Oakland Ave", "PERMIT_DATE": "2020-10-30", "PERMIT_NUMBER": "2020055412", "ADU_TYPE": null, "ACCESSORY_STRUCTURE_TYPE": null, "OWNER_NAME": "2400 OAKLAND, LLC", "CONTRACTOR_BIZ_NAME_ORIGINAL": null, "FEES_JSON": 0.0, "STATUS_NORMALIZED": "Active"}}, {"type": "Feature", "geometry": {"type": "Point", "coordinates": [-92.50866538030476, 34.153465657507276]}, "properties": {"STREET": "1004 B Stockell St", "PERMIT_DATE": "2022-09-07", "PERMIT_NUMBER": "2022060567", "ADU_TYPE": null, "ACCESSORY_STRUCTURE_TYPE": "garage", "OWNER_NAME": "WHITE, CLAIRE GILBERT", "CONTRACTOR_BIZ_NAME_ORIGINAL": "Music City Electrical Engineering Llc", "FEES_JSON": 135.04, "STATUS_NORMALIZED": "In Review"}}, {"type": "Feature", "geometry": {"type": "Point", "coordinates": [-86.79373344687566, 36.12505335978128]}, "properties": {"STREET": "2510 Belmont Blvd", "PERMIT_DATE": "2018-09-12", "PERMIT_NUMBER": "2018058129", "ADU_TYPE": null, "ACCESSORY_STRUCTURE_TYPE": null, "OWNER_NAME": "O'NEILL TYRUS K & SCHREINER MONIQUE", "CONTRACTOR_BIZ_NAME_ORIGINAL": "Frog Heating & Air Conditioning Llc", "FEES_JSON": 322.01, "STATUS_NORMALIZED": "Inactive"}}, {"type": "Feature", "geometry": {"type": "Point", "coordinates": [-86.82746033172386, 36.157451582023775]}, "properties": {"STREET": "3400 Indiana Ave", "PERMIT_DATE": "2004-09-10", "PERMIT_NUMBER": "200414033", "ADU_TYPE": null, "ACCESSORY_STRUCTURE_TYPE": null, "OWNER_NAME": "MDHA", "CONTRACTOR_BIZ_NAME_ORIGINAL": "Advent Electric Inc", "FEES_JSON": 50.0, "STATUS_NORMALIZED": "In Review"}}, {"type": "Feature", "geometry": {"type": "Point", "coordinates": [-86.79441669651797, 36.12632224702637]}, "properties": {"STREET": "2405 B Belmont Blvd", "PERMIT_DATE": "2020-01-23", "PERMIT_NUMBER": "2019076733", "ADU_TYPE": null, "ACCESSORY_STRUCTURE_TYPE": null, "OWNER_NAME": "FOWLER, LESLIE C. & MEGAN", "CONTRACTOR_BIZ_NAME_ORIGINAL": null, "FEES_JSON": 320.2, "STATUS_NORMALIZED": "Inactive"}}, {"type": "Feature", "geometry": {"type": "Point", "coordinates": [-86.81888340809454, 36.135485373087235]}, "properties": {"STREET": "330 B Chesterfield Ave", "PERMIT_DATE": "2024-07-17", "PERMIT_NUMBER": "2024065118", "ADU_TYPE": null, "ACCESSORY_STRUCTURE_TYPE": "garage", "OWNER_NAME": "SACKS, DAVID N. & MEREDITH", "CONTRACTOR_BIZ_NAME_ORIGINAL": "Centennial Plumbing Llc", "FEES_JSON": 142.91, "STATUS_NORMALIZED": "Active"}}, {"type": "Feature", "geometry": {"type": "Point", "coordinates": [-92.50866538030476, 34.153465657507276]}, "properties": {"STREET": "1915 Benjamin St", "PERMIT_DATE": "2018-10-18", "PERMIT_NUMBER": "2018066296", "ADU_TYPE": null, "ACCESSORY_STRUCTURE_TYPE": null, "OWNER_NAME": "ARNOLD, MELIA & KRISTINA", "CONTRACTOR_BIZ_NAME_ORIGINAL": "Rubio, Carlos Contr", "FEES_JSON": 110.95, "STATUS_NORMALIZED": "In Review"}}, {"type": "Feature", "geometry": {"type": "Point", "coordinates": [-86.81050863018577, 36.129596514217425]}, "properties": {"STREET": "2610 Sunset Pl", "PERMIT_DATE": "2022-05-20", "PERMIT_NUMBER": "2022022824", "ADU_TYPE": null, "ACCESSORY_STRUCTURE_TYPE": null, "OWNER_NAME": "LINGO, KENNETH H. ET UX", "CONTRACTOR_BIZ_NAME_ORIGINAL": "Wyatt Design Build Llc", "FEES_JSON": 383.67, "STATUS_NORMALIZED": "In Review"}}, {"type": "Feature", "geometry": {"type": "Point", "coordinates": [-92.50866538030476, 34.153465657507276]}, "properties": {"STREET": "1806 B Lakehurst Dr", "PERMIT_DATE": "2017-07-31", "PERMIT_NUMBER": "2017049897", "ADU_TYPE": null, "ACCESSORY_STRUCTURE_TYPE": "garage", "OWNER_NAME": "LACKEY, CRAIG H. & JANE E.", "CONTRACTOR_BIZ_NAME_ORIGINAL": "L & R Plumbing Llc", "FEES_JSON": 132.48, "STATUS_NORMALIZED": "In Review"}}, {"type": "Feature", "geometry": {"type": "Point", "coordinates": [-86.86473930394953, 36.09988359007569]}, "properties": {"STREET": "130 Blackburn Ave", "PERMIT_DATE": "2024-08-14", "PERMIT_NUMBER": "2024073546", "ADU_TYPE": null, "ACCESSORY_STRUCTURE_TYPE": null, "OWNER_NAME": "HEGSTROM, JOHN TATE & EMILY ORR", "CONTRACTOR_BIZ_NAME_ORIGINAL": "Boaz, Donald & Teresa Contractor", "FEES_JSON": 154.16, "STATUS_NORMALIZED": "Active"}}, {"type": "Feature", "geometry": {"type": "Point", "coordinates": [-86.7562198009048, 36.19492383910794]}, "properties": {"STREET": "1312 Montgomery Ave", "PERMIT_DATE": "2024-09-11", "PERMIT_NUMBER": "2024050564", "ADU_TYPE": null, "ACCESSORY_STRUCTURE_TYPE": "porch", "OWNER_NAME": "BETTER HOME BUILDERS, LLC", "CONTRACTOR_BIZ_NAME_ORIGINAL": "Ace Developers & Importers, Seth Afotey Dba,", "FEES_JSON": 2096.13, "STATUS_NORMALIZED": "Active"}}, {"type": "Feature", "geometry": {"type": "Point", "coordinates": [-86.71126220383327, 36.12341574319248]}, "properties": {"STREET": "315 Bowwood Dr", "PERMIT_DATE": "2024-09-09", "PERMIT_NUMBER": "2024073744", "ADU_TYPE": null, "ACCESSORY_STRUCTURE_TYPE": "barn", "OWNER_NAME": "BURGESS, WILLIAM F & TINNIE R ETAL", "CONTRACTOR_BIZ_NAME_ORIGINAL": "Platinum Building Solutions, Llc", "FEES_JSON": 200.0, "STATUS_NORMALIZED": "Active"}}, {"type": "Feature", "geometry": {"type": "Point", "coordinates": [-86.72477487420055, 36.18205018083486]}, "properties": {"STREET": "2305 D2 Eastland Ave", "PERMIT_DATE": "2024-01-08", "PERMIT_NUMBER": "2024001997", "ADU_TYPE": null, "ACCESSORY_STRUCTURE_TYPE": "garage", "OWNER_NAME": "T & M DEVELOPMENT, LLC", "CONTRACTOR_BIZ_NAME_ORIGINAL": "Integrity Plumbing Llc", "FEES_JSON": 85.52, "STATUS_NORMALIZED": "In Review"}}, {"type": "Feature", "geometry": {"type": "Point", "coordinates": [-92.50866538030476, 34.153465657507276]}, "properties": {"STREET": "1007 B Lischey Ave", "PERMIT_DATE": "2023-12-19", "PERMIT_NUMBER": "2023100664", "ADU_TYPE": null, "ACCESSORY_STRUCTURE_TYPE": "garage", "OWNER_NAME": "REED, LAUREN & WILLIAMS, BRAD", "CONTRACTOR_BIZ_NAME_ORIGINAL": "Real Handy Pro Llc", "FEES_JSON": 84.4, "STATUS_NORMALIZED": "In Review"}}, {"type": "Feature", "geometry": {"type": "Point", "coordinates": [-86.75712054693231, 36.17189288334443]}, "properties": {"STREET": "800 B Fatherland St", "PERMIT_DATE": "2023-12-02", "PERMIT_NUMBER": "2023094912", "ADU_TYPE": null, "ACCESSORY_STRUCTURE_TYPE": "garage, storage, deck", "OWNER_NAME": "KNOLL, KRISTIN", "CONTRACTOR_BIZ_NAME_ORIGINAL": "Watkins Electric Llc", "FEES_JSON": 84.4, "STATUS_NORMALIZED": "In Review"}}, {"type": "Feature", "geometry": {"type": "Point", "coordinates": [-86.86018733862643, 36.32533264226133]}, "properties": {"STREET": "3108 Margie Dr", "PERMIT_DATE": "2022-01-12", "PERMIT_NUMBER": "2021069034", "ADU_TYPE": null, "ACCESSORY_STRUCTURE_TYPE": "porch", "OWNER_NAME": "FUENTES, GUSTAVO", "CONTRACTOR_BIZ_NAME_ORIGINAL": "Self Contractor Residential (see Applicant Information)", "FEES_JSON": 442.37, "STATUS_NORMALIZED": "Inactive"}}, {"type": "Feature", "geometry": {"type": "Point", "coordinates": [-86.72431886450617, 36.18201258833198]}, "properties": {"STREET": "2305 H2 Eastland Ave", "PERMIT_DATE": "2024-01-08", "PERMIT_NUMBER": "2024002015", "ADU_TYPE": null, "ACCESSORY_STRUCTURE_TYPE": "garage", "OWNER_NAME": "T & M DEVELOPMENT, LLC", "CONTRACTOR_BIZ_NAME_ORIGINAL": "Integrity Plumbing Llc", "FEES_JSON": 85.52, "STATUS_NORMALIZED": "Active"}}, {"type": "Feature", "geometry": {"type": "Point", "coordinates": [-86.8277887338449, 36.14301361840849]}, "properties": {"STREET": "3609 Pilcher Ave", "PERMIT_DATE": "2023-05-11", "PERMIT_NUMBER": "2023031239", "ADU_TYPE": null, "ACCESSORY_STRUCTURE_TYPE": "garage, porch", "OWNER_NAME": "STRASSBERG, SHANNA", "CONTRACTOR_BIZ_NAME_ORIGINAL": "Wired Llc", "FEES_JSON": 84.4, "STATUS_NORMALIZED": "In Review"}}, {"type": "Feature", "geometry": {"type": "Point", "coordinates": [-92.50866538030476, 34.153465657507276]}, "properties": {"STREET": "110 B Mockingbird Rd", "PERMIT_DATE": "2022-12-02", "PERMIT_NUMBER": "2021019481", "ADU_TYPE": null, "ACCESSORY_STRUCTURE_TYPE": "garage", "OWNER_NAME": "CARSON, KEVIN MICHAEL & AMBER LEIGH", "CONTRACTOR_BIZ_NAME_ORIGINAL": "Richard Ice Construction", "FEES_JSON": 343.11, "STATUS_NORMALIZED": "In Review"}}, {"type": "Feature", "geometry": {"type": "Point", "coordinates": [-86.79045292619102, 36.1262050592221]}, "properties": {"STREET": "1209 Elmwood Ave", "PERMIT_DATE": "2021-02-23", "PERMIT_NUMBER": "2021006633", "ADU_TYPE": null, "ACCESSORY_STRUCTURE_TYPE": null, "OWNER_NAME": "JOSEPH, TARA B. TRUST", "CONTRACTOR_BIZ_NAME_ORIGINAL": null, "FEES_JSON": 0.0, "STATUS_NORMALIZED": "Inactive"}}, {"type": "Feature", "geometry": {"type": "Point", "coordinates": [-86.85146599029174, 36.074948589391035]}, "properties": {"STREET": "1152 Crater Hill Dr", "PERMIT_DATE": "2007-07-05", "PERMIT_NUMBER": "200731910", "ADU_TYPE": null, "ACCESSORY_STRUCTURE_TYPE": null, "OWNER_NAME": "1152 CRATER HILL TRUST", "CONTRACTOR_BIZ_NAME_ORIGINAL": "Steakley, Jack Plumbing Co Inc", "FEES_JSON": 50.0, "STATUS_NORMALIZED": "In Review"}}, {"type": "Feature", "geometry": {"type": "Point", "coordinates": [-92.50866538030476, 34.153465657507276]}, "properties": {"STREET": "1700 B Porter Rd", "PERMIT_DATE": "2023-08-28", "PERMIT_NUMBER": "2023060329", "ADU_TYPE": null, "ACCESSORY_STRUCTURE_TYPE": null, "OWNER_NAME": "KING, JANSEN & BROUSSARD, GIA", "CONTRACTOR_BIZ_NAME_ORIGINAL": "Wired Llc", "FEES_JSON": 95.65, "STATUS_NORMALIZED": "In Review"}}, {"type": "Feature", "geometry": {"type": "Point", "coordinates": [-92.50866538030476, 34.153465657507276]}, "properties": {"STREET": "3002 B Belmont Blvd", "PERMIT_DATE": "2023-12-20", "PERMIT_NUMBER": "2023099519", "ADU_TYPE": null, "ACCESSORY_STRUCTURE_TYPE": "garage", "OWNER_NAME": "O'NEILL, KEVIN & ANGELA", "CONTRACTOR_BIZ_NAME_ORIGINAL": "Huffine First Service", "FEES_JSON": 147.41, "STATUS_NORMALIZED": "In Review"}}, {"type": "Feature", "geometry": {"type": "Point", "coordinates": [-86.59958590315651, 36.07739517857415]}, "properties": {"STREET": "912 Kalvesta Ct", "PERMIT_DATE": "2024-11-13", "PERMIT_NUMBER": "2024070748", "ADU_TYPE": null, "ACCESSORY_STRUCTURE_TYPE": "storage, shed", "OWNER_NAME": "RODRIGUEZ, LISBETH", "CONTRACTOR_BIZ_NAME_ORIGINAL": "Self Contractor Residential (see Applicant Information)", "FEES_JSON": 81.84, "STATUS_NORMALIZED": "Active"}}, {"type": "Feature", "geometry": {"type": "Point", "coordinates": [-86.7413889135708, 36.17256252014188]}, "properties": {"STREET": "1613 B Lillian St", "PERMIT_DATE": "2017-06-21", "PERMIT_NUMBER": "2017041025", "ADU_TYPE": null, "ACCESSORY_STRUCTURE_TYPE": "garage", "OWNER_NAME": "MARSH, LORIANNE S.", "CONTRACTOR_BIZ_NAME_ORIGINAL": "Porter Electric", "FEES_JSON": 112.53, "STATUS_NORMALIZED": "Inactive"}}, {"type": "Feature", "geometry": {"type": "Point", "coordinates": [-92.50866538030476, 34.153465657507276]}, "properties": {"STREET": "4609 A2 Illinois Ave", "PERMIT_DATE": "2021-04-23", "PERMIT_NUMBER": "2021024199", "ADU_TYPE": null, "ACCESSORY_STRUCTURE_TYPE": "garage", "OWNER_NAME": "ILLINOIS NATIONS, LLC", "CONTRACTOR_BIZ_NAME_ORIGINAL": "Dedicated Hvac & Electric Llc", "FEES_JSON": 122.76, "STATUS_NORMALIZED": "In Review"}}, {"type": "Feature", "geometry": {"type": "Point", "coordinates": [-86.63800622622762, 36.07628593648211]}, "properties": {"STREET": "313 Rural Hill Ct", "PERMIT_DATE": "2013-12-09", "PERMIT_NUMBER": "201338501", "ADU_TYPE": null, "ACCESSORY_STRUCTURE_TYPE": null, "OWNER_NAME": "DRAPER, TYSON", "CONTRACTOR_BIZ_NAME_ORIGINAL": "Self Contractor Residential (see Applicant Information)", "FEES_JSON": 50.0, "STATUS_NORMALIZED": "Inactive"}}, {"type": "Feature", "geometry": {"type": "Point", "coordinates": [-92.50866538030476, 34.153465657507276]}, "properties": {"STREET": "1106 B N 6Th St", "PERMIT_DATE": "2024-08-10", "PERMIT_NUMBER": "2024072605", "ADU_TYPE": null, "ACCESSORY_STRUCTURE_TYPE": null, "OWNER_NAME": "MINDFUL HOME SOLUTIONS II, LLC & ROSY, LLC", "CONTRACTOR_BIZ_NAME_ORIGINAL": "A/c Doctor Heating And Air Conditioning Dba Mohamad El-assul", "FEES_JSON": 85.52, "STATUS_NORMALIZED": "In Review"}}, {"type": "Feature", "geometry": {"type": "Point", "coordinates": [-86.8419732842245, 36.095521044335825]}, "properties": {"STREET": "4321 Esteswood Dr", "PERMIT_DATE": "2024-08-30", "PERMIT_NUMBER": "2024079013", "ADU_TYPE": null, "ACCESSORY_STRUCTURE_TYPE": "cabana, storage", "OWNER_NAME": "SHEPARD, BRADLEY & KIMBERLY REVOCABLE TRUST", "CONTRACTOR_BIZ_NAME_ORIGINAL": "Adams Air Conditioning & Heating Services Inc", "FEES_JSON": 311.71, "STATUS_NORMALIZED": "Active"}}, {"type": "Feature", "geometry": {"type": "Point", "coordinates": [-86.7392370734212, 36.174993096162375]}, "properties": {"STREET": "121 S 17Th St", "PERMIT_DATE": "2016-10-12", "PERMIT_NUMBER": "2016051890", "ADU_TYPE": null, "ACCESSORY_STRUCTURE_TYPE": null, "OWNER_NAME": "BLANKENSHIP, GREG & STACIE", "CONTRACTOR_BIZ_NAME_ORIGINAL": "Building Company Number 7 Inc", "FEES_JSON": 907.14, "STATUS_NORMALIZED": "In Review"}}, {"type": "Feature", "geometry": {"type": "Point", "coordinates": [-86.79573469582401, 36.12661261833022]}, "properties": {"STREET": "2409 B Oakland Ave", "PERMIT_DATE": "2024-10-23", "PERMIT_NUMBER": "2024095306", "ADU_TYPE": null, "ACCESSORY_STRUCTURE_TYPE": "garage, storage", "OWNER_NAME": "OAKLAND AVENUE TRUST", "CONTRACTOR_BIZ_NAME_ORIGINAL": "Amber Electric Company", "FEES_JSON": 84.4, "STATUS_NORMALIZED": "Active"}}, {"type": "Feature", "geometry": {"type": "Point", "coordinates": [-92.50866538030476, 34.153465657507276]}, "properties": {"STREET": "1717 B Hudson Rd", "PERMIT_DATE": "2024-06-05", "PERMIT_NUMBER": "2023069490", "ADU_TYPE": null, "ACCESSORY_STRUCTURE_TYPE": "garage", "OWNER_NAME": "NOEL, ILTENE V. & LAPORTE, JUDE ETAL", "CONTRACTOR_BIZ_NAME_ORIGINAL": "Huffine First Service", "FEES_JSON": 140.66, "STATUS_NORMALIZED": "In Review"}}, {"type": "Feature", "geometry": {"type": "Point", "coordinates": [-86.79373344687566, 36.12505335978128]}, "properties": {"STREET": "2510 Belmont Blvd", "PERMIT_DATE": "2018-04-26", "PERMIT_NUMBER": "2018022928", "ADU_TYPE": null, "ACCESSORY_STRUCTURE_TYPE": null, "OWNER_NAME": "O'NEILL TYRUS K & SCHREINER MONIQUE", "CONTRACTOR_BIZ_NAME_ORIGINAL": "Self Contractor Residential (see Applicant Information)", "FEES_JSON": 561.78, "STATUS_NORMALIZED": "Inactive"}}, {"type": "Feature", "geometry": {"type": "Point", "coordinates": [-86.78471595051471, 36.12742541687171]}, "properties": {"STREET": "917 Bradford Ave", "PERMIT_DATE": "2023-01-17", "PERMIT_NUMBER": "2022081195", "ADU_TYPE": null, "ACCESSORY_STRUCTURE_TYPE": "storage, shed", "OWNER_NAME": "ANDRADY, AUTUMN", "CONTRACTOR_BIZ_NAME_ORIGINAL": "Wtw Construction Co,llc", "FEES_JSON": 52.04, "STATUS_NORMALIZED": "In Review"}}, {"type": "Feature", "geometry": {"type": "Point", "coordinates": [-92.50866538030476, 34.153465657507276]}, "properties": {"STREET": "1619 B Forrest Ave", "PERMIT_DATE": "2023-04-08", "PERMIT_NUMBER": "2023022696", "ADU_TYPE": null, "ACCESSORY_STRUCTURE_TYPE": "garage", "OWNER_NAME": "CARLON, ROBERT", "CONTRACTOR_BIZ_NAME_ORIGINAL": "Amber Electric Company", "FEES_JSON": 146.29, "STATUS_NORMALIZED": "In Review"}}, {"type": "Feature", "geometry": {"type": "Point", "coordinates": [-86.83595347073235, 36.132298554424366]}, "properties": {"STREET": "112 Mockingbird Rd", "PERMIT_DATE": "2017-12-28", "PERMIT_NUMBER": "2017080606", "ADU_TYPE": null, "ACCESSORY_STRUCTURE_TYPE": null, "OWNER_NAME": "POTEMPA JOINT REVOCABLE TRUST AMENDED & RESTATED", "CONTRACTOR_BIZ_NAME_ORIGINAL": null, "FEES_JSON": 0.0, "STATUS_NORMALIZED": "In Review"}}, {"type": "Feature", "geometry": {"type": "Point", "coordinates": [-86.79996124403193, 36.129762515271274]}, "properties": {"STREET": "1915 B Blair Blvd", "PERMIT_DATE": "2017-12-28", "PERMIT_NUMBER": "2017081855", "ADU_TYPE": null, "ACCESSORY_STRUCTURE_TYPE": "garage, porch", "OWNER_NAME": "BRODY, MICHAEL J. & BALLARD, NICOLE L.", "CONTRACTOR_BIZ_NAME_ORIGINAL": "Jawm Midsouth Electrical & Mechanical Contractors Inc", "FEES_JSON": 140.97, "STATUS_NORMALIZED": "In Review"}}, {"type": "Feature", "geometry": {"type": "Point", "coordinates": [-92.50866538030476, 34.153465657507276]}, "properties": {"STREET": "219 B Colt Dr", "PERMIT_DATE": "2018-03-21", "PERMIT_NUMBER": "2018014932", "ADU_TYPE": null, "ACCESSORY_STRUCTURE_TYPE": null, "OWNER_NAME": "QUIAOIT, ETHEL BETH & BARRY F.", "CONTRACTOR_BIZ_NAME_ORIGINAL": "Self Contractor Residential (see Applicant Information)", "FEES_JSON": 128.86, "STATUS_NORMALIZED": "Inactive"}}, {"type": "Feature", "geometry": {"type": "Point", "coordinates": [-86.79960266707813, 36.13282091474455]}, "properties": {"STREET": "2002 20Th Ave S", "PERMIT_DATE": "2018-08-23", "PERMIT_NUMBER": "2018012711", "ADU_TYPE": null, "ACCESSORY_STRUCTURE_TYPE": null, "OWNER_NAME": "SMITH, CLINTON A. & HOLLY S.", "CONTRACTOR_BIZ_NAME_ORIGINAL": null, "FEES_JSON": 0.0, "STATUS_NORMALIZED": "In Review"}}, {"type": "Feature", "geometry": {"type": "Point", "coordinates": [-92.50866538030476, 34.153465657507276]}, "properties": {"STREET": "207 B S 12Th St", "PERMIT_DATE": "2018-03-20", "PERMIT_NUMBER": "2018015475", "ADU_TYPE": null, "ACCESSORY_STRUCTURE_TYPE": "garage", "OWNER_NAME": "CAIN, JAMES L. JR. & LIBBY DAVIS", "CONTRACTOR_BIZ_NAME_ORIGINAL": "C & S Heating Air & Electric Inc", "FEES_JSON": 214.84, "STATUS_NORMALIZED": "In Review"}}, {"type": "Feature", "geometry": {"type": "Point", "coordinates": [-92.50866538030476, 34.153465657507276]}, "properties": {"STREET": "2513 B Old Hickory Blvd", "PERMIT_DATE": "2018-03-26", "PERMIT_NUMBER": "2018016715", "ADU_TYPE": null, "ACCESSORY_STRUCTURE_TYPE": "garage", "OWNER_NAME": "WESTIES PROPERTY TRUST (REVOCABLE LAND TRUST AGR)", "CONTRACTOR_BIZ_NAME_ORIGINAL": "Empire Electric Llc", "FEES_JSON": 76.72, "STATUS_NORMALIZED": "In Review"}}, {"type": "Feature", "geometry": {"type": "Point", "coordinates": [-92.50866538030476, 34.153465657507276]}, "properties": {"STREET": "2513 B Old Hickory Blvd", "PERMIT_DATE": "2018-03-26", "PERMIT_NUMBER": "2018016718", "ADU_TYPE": null, "ACCESSORY_STRUCTURE_TYPE": "garage", "OWNER_NAME": "WESTIES PROPERTY TRUST (REVOCABLE LAND TRUST AGR)", "CONTRACTOR_BIZ_NAME_ORIGINAL": "Empire Electric Llc", "FEES_JSON": 123.07, "STATUS_NORMALIZED": "In Review"}}, {"type": "Feature", "geometry": {"type": "Point", "coordinates": [-92.50866538030476, 34.153465657507276]}, "properties": {"STREET": "919 B Montrose Ave", "PERMIT_DATE": "2018-04-06", "PERMIT_NUMBER": "2018017910", "ADU_TYPE": null, "ACCESSORY_STRUCTURE_TYPE": "garage", "OWNER_NAME": "SHARMAT, SAMUEL & BELL, ALISSA", "CONTRACTOR_BIZ_NAME_ORIGINAL": "Urban Development Group Llc", "FEES_JSON": 628.01, "STATUS_NORMALIZED": "Inactive"}}, {"type": "Feature", "geometry": {"type": "Point", "coordinates": [-92.50866538030476, 34.153465657507276]}, "properties": {"STREET": "1102 A2 N 8Th St", "PERMIT_DATE": "2018-05-31", "PERMIT_NUMBER": "2018019037", "ADU_TYPE": null, "ACCESSORY_STRUCTURE_TYPE": "garage", "OWNER_NAME": "HEINER, JOSHUA D.", "CONTRACTOR_BIZ_NAME_ORIGINAL": "Rojo Construction Llc", "FEES_JSON": 241.61, "STATUS_NORMALIZED": "Inactive"}}, {"type": "Feature", "geometry": {"type": "Point", "coordinates": [-92.50866538030476, 34.153465657507276]}, "properties": {"STREET": "1904 Beech Ave", "PERMIT_DATE": "2018-08-03", "PERMIT_NUMBER": "2018020121", "ADU_TYPE": null, "ACCESSORY_STRUCTURE_TYPE": null, "OWNER_NAME": "MARTIN, LARRY & JANE REVOCABLE TRUST", "CONTRACTOR_BIZ_NAME_ORIGINAL": null, "FEES_JSON": 0.0, "STATUS_NORMALIZED": "Active"}}, {"type": "Feature", "geometry": {"type": "Point", "coordinates": [-86.74529032196415, 36.17501415774479]}, "properties": {"STREET": "1409 B Russell St", "PERMIT_DATE": "2018-05-09", "PERMIT_NUMBER": "2018022523", "ADU_TYPE": null, "ACCESSORY_STRUCTURE_TYPE": null, "OWNER_NAME": "MAHAN, DREW & FARMER, BRITTANY D.", "CONTRACTOR_BIZ_NAME_ORIGINAL": null, "FEES_JSON": 1330.8, "STATUS_NORMALIZED": "Active"}}, {"type": "Feature", "geometry": {"type": "Point", "coordinates": [-86.78841843425052, 36.17652753253537]}, "properties": {"STREET": "1224 5Th Ave N", "PERMIT_DATE": "2018-05-31", "PERMIT_NUMBER": "2018023111", "ADU_TYPE": null, "ACCESSORY_STRUCTURE_TYPE": null, "OWNER_NAME": "LEWIS, MARILYN M REVOCABLE TRUST", "CONTRACTOR_BIZ_NAME_ORIGINAL": null, "FEES_JSON": 51.15, "STATUS_NORMALIZED": "Inactive"}}, {"type": "Feature", "geometry": {"type": "Point", "coordinates": [-86.75774791213823, 36.171006861564315]}, "properties": {"STREET": "711 Boscobel St", "PERMIT_DATE": "2018-05-11", "PERMIT_NUMBER": "2018024829", "ADU_TYPE": null, "ACCESSORY_STRUCTURE_TYPE": null, "OWNER_NAME": "COLBY, BRIAN T. & JILL L.", "CONTRACTOR_BIZ_NAME_ORIGINAL": null, "FEES_JSON": 0.0, "STATUS_NORMALIZED": "In Review"}}, {"type": "Feature", "geometry": {"type": "Point", "coordinates": [-86.78532955840691, 36.12086874260316]}, "properties": {"STREET": "915 B Knox Ave", "PERMIT_DATE": "2018-07-02", "PERMIT_NUMBER": "2018024901", "ADU_TYPE": null, "ACCESSORY_STRUCTURE_TYPE": null, "OWNER_NAME": "LEHMAN, MATTHEW & AMBER", "CONTRACTOR_BIZ_NAME_ORIGINAL": null, "FEES_JSON": 1324.75, "STATUS_NORMALIZED": "Active"}}, {"type": "Feature", "geometry": {"type": "Point", "coordinates": [-86.74714778604299, 36.180664894799975]}, "properties": {"STREET": "1209 Ordway Pl", "PERMIT_DATE": "2018-05-17", "PERMIT_NUMBER": "2018025159", "ADU_TYPE": null, "ACCESSORY_STRUCTURE_TYPE": null, "OWNER_NAME": "PARKES, JAMES MATTHEW & MILDRED ENGERS CALLAWAY", "CONTRACTOR_BIZ_NAME_ORIGINAL": null, "FEES_JSON": 0.0, "STATUS_NORMALIZED": "In Review"}}, {"type": "Feature", "geometry": {"type": "Point", "coordinates": [-86.7394088393208, 36.17339756379373]}, "properties": {"STREET": "1703 B Fatherland St", "PERMIT_DATE": "2018-05-15", "PERMIT_NUMBER": "2018025343", "ADU_TYPE": null, "ACCESSORY_STRUCTURE_TYPE": null, "OWNER_NAME": "OVERBY, THOMAS & WILLIAMS, LUCINDA G", "CONTRACTOR_BIZ_NAME_ORIGINAL": null, "FEES_JSON": 50.0, "STATUS_NORMALIZED": "Inactive"}}, {"type": "Feature", "geometry": {"type": "Point", "coordinates": [-92.50866538030476, 34.153465657507276]}, "properties": {"STREET": "1302 61St Ave N", "PERMIT_DATE": "2018-05-08", "PERMIT_NUMBER": "2018025922", "ADU_TYPE": null, "ACCESSORY_STRUCTURE_TYPE": "garage, porches, decks", "OWNER_NAME": "CARTNER, TERESA", "CONTRACTOR_BIZ_NAME_ORIGINAL": "Crabtree Custom Electric Llc", "FEES_JSON": 76.72, "STATUS_NORMALIZED": "In Review"}}, {"type": "Feature", "geometry": {"type": "Point", "coordinates": [-86.75595787307053, 36.081658679130456]}, "properties": {"STREET": "4735 Timberhill Dr", "PERMIT_DATE": "2018-05-16", "PERMIT_NUMBER": "2018027757", "ADU_TYPE": null, "ACCESSORY_STRUCTURE_TYPE": "garage, shed, storage", "OWNER_NAME": "RUMFORD, MATTHEW", "CONTRACTOR_BIZ_NAME_ORIGINAL": "Self Contractor Residential (see Applicant Information)", "FEES_JSON": 273.11, "STATUS_NORMALIZED": "Inactive"}}, {"type": "Feature", "geometry": {"type": "Point", "coordinates": [-86.74579575050961, 36.17505900241441]}, "properties": {"STREET": "1403 Russell St", "PERMIT_DATE": "2018-05-21", "PERMIT_NUMBER": "2018028641", "ADU_TYPE": null, "ACCESSORY_STRUCTURE_TYPE": null, "OWNER_NAME": "JENKINS, JASON", "CONTRACTOR_BIZ_NAME_ORIGINAL": "Clark Heating & Cooling", "FEES_JSON": 83.89, "STATUS_NORMALIZED": "In Review"}}, {"type": "Feature", "geometry": {"type": "Point", "coordinates": [-92.50866538030476, 34.153465657507276]}, "properties": {"STREET": "711 B Boscobel St", "PERMIT_DATE": "2018-06-21", "PERMIT_NUMBER": "2018028921", "ADU_TYPE": null, "ACCESSORY_STRUCTURE_TYPE": "garage", "OWNER_NAME": "COLBY, BRIAN T. & JILL L.", "CONTRACTOR_BIZ_NAME_ORIGINAL": "Building Company Number 7 Inc", "FEES_JSON": 517.99, "STATUS_NORMALIZED": "In Review"}}, {"type": "Feature", "geometry": {"type": "Point", "coordinates": [-86.74076259976378, 36.177510297172034]}, "properties": {"STREET": "1610 Forrest Ave", "PERMIT_DATE": "2018-06-11", "PERMIT_NUMBER": "2018029002", "ADU_TYPE": null, "ACCESSORY_STRUCTURE_TYPE": null, "OWNER_NAME": "DAWSON, STEPHEN & ALICE", "CONTRACTOR_BIZ_NAME_ORIGINAL": null, "FEES_JSON": 50.0, "STATUS_NORMALIZED": "Inactive"}}, {"type": "Feature", "geometry": {"type": "Point", "coordinates": [-92.50866538030476, 34.153465657507276]}, "properties": {"STREET": "916 B N 5Th St", "PERMIT_DATE": "2018-06-21", "PERMIT_NUMBER": "2018029665", "ADU_TYPE": null, "ACCESSORY_STRUCTURE_TYPE": "garage", "OWNER_NAME": "SPOOLSTRA, ALBERN & KATHRYN HOPE", "CONTRACTOR_BIZ_NAME_ORIGINAL": "Self Contractor Residential (see Applicant Information)", "FEES_JSON": 656.4, "STATUS_NORMALIZED": "Inactive"}}, {"type": "Feature", "geometry": {"type": "Point", "coordinates": [-86.76427244558577, 36.18973395440865]}, "properties": {"STREET": "1024 Lischey Ave", "PERMIT_DATE": "2018-06-05", "PERMIT_NUMBER": "2018031901", "ADU_TYPE": null, "ACCESSORY_STRUCTURE_TYPE": "porches", "OWNER_NAME": "SIMONS, GAIL I. & ANTHONY J.", "CONTRACTOR_BIZ_NAME_ORIGINAL": "Rhodes, Josh Plumbing", "FEES_JSON": 141.94, "STATUS_NORMALIZED": "In Review"}}, {"type": "Feature", "geometry": {"type": "Point", "coordinates": [-86.71596007625303, 36.17914522932728]}, "properties": {"STREET": "806 B Potter Ln", "PERMIT_DATE": "2018-06-18", "PERMIT_NUMBER": "2018032593", "ADU_TYPE": null, "ACCESSORY_STRUCTURE_TYPE": null, "OWNER_NAME": "MAISON MANAGEMENT, LLC", "CONTRACTOR_BIZ_NAME_ORIGINAL": null, "FEES_JSON": 51.15, "STATUS_NORMALIZED": "Inactive"}}, {"type": "Feature", "geometry": {"type": "Point", "coordinates": [-86.78695293890547, 36.12421926007621]}, "properties": {"STREET": "1005 Gilmore Ave", "PERMIT_DATE": "2018-06-07", "PERMIT_NUMBER": "2018032643", "ADU_TYPE": null, "ACCESSORY_STRUCTURE_TYPE": null, "OWNER_NAME": "1005 GILMORE AVENUE TRUST, THE", "CONTRACTOR_BIZ_NAME_ORIGINAL": "Structure Craft Llc", "FEES_JSON": 494.35, "STATUS_NORMALIZED": "In Review"}}, {"type": "Feature", "geometry": {"type": "Point", "coordinates": [-86.7632867465444, 36.18773923741113]}, "properties": {"STREET": "920 N 5Th St", "PERMIT_DATE": "2018-09-18", "PERMIT_NUMBER": "2018032678", "ADU_TYPE": null, "ACCESSORY_STRUCTURE_TYPE": null, "OWNER_NAME": "PILKINTON, BRIAN & BREWER, STACY", "CONTRACTOR_BIZ_NAME_ORIGINAL": "Southern Spaces Llc", "FEES_JSON": 494.35, "STATUS_NORMALIZED": "In Review"}}, {"type": "Feature", "geometry": {"type": "Point", "coordinates": [-86.78511860076672, 36.12910622061284]}, "properties": {"STREET": "922 Lawrence Ave", "PERMIT_DATE": "2018-06-21", "PERMIT_NUMBER": "2018032875", "ADU_TYPE": null, "ACCESSORY_STRUCTURE_TYPE": null, "OWNER_NAME": "BARTZ, CALLIE & RYAN", "CONTRACTOR_BIZ_NAME_ORIGINAL": null, "FEES_JSON": 0.0, "STATUS_NORMALIZED": "In Review"}}, {"type": "Feature", "geometry": {"type": "Point", "coordinates": [-86.73703673025273, 36.17530152478041]}, "properties": {"STREET": "1813 Holly St", "PERMIT_DATE": "2018-06-21", "PERMIT_NUMBER": "2018033378", "ADU_TYPE": null, "ACCESSORY_STRUCTURE_TYPE": null, "OWNER_NAME": "LANDSPERGER, NATHANIEL D. & JANNA S.", "CONTRACTOR_BIZ_NAME_ORIGINAL": null, "FEES_JSON": 0.0, "STATUS_NORMALIZED": "Inactive"}}, {"type": "Feature", "geometry": {"type": "Point", "coordinates": [-86.76434528238127, 36.19279150990603]}, "properties": {"STREET": "1213 Stainback Ave", "PERMIT_DATE": "2018-06-21", "PERMIT_NUMBER": "2018034131", "ADU_TYPE": null, "ACCESSORY_STRUCTURE_TYPE": null, "OWNER_NAME": "WELCH, SARA J.", "CONTRACTOR_BIZ_NAME_ORIGINAL": null, "FEES_JSON": 50.0, "STATUS_NORMALIZED": "Inactive"}}, {"type": "Feature", "geometry": {"type": "Point", "coordinates": [-92.50866538030476, 34.153465657507276]}, "properties": {"STREET": "1417 B Roberts Ave", "PERMIT_DATE": "2018-06-14", "PERMIT_NUMBER": "2018034180", "ADU_TYPE": null, "ACCESSORY_STRUCTURE_TYPE": null, "OWNER_NAME": "ABEGG, JAMES P. ET UX", "CONTRACTOR_BIZ_NAME_ORIGINAL": "Jbg Plumbing", "FEES_JSON": 76.72, "STATUS_NORMALIZED": "Inactive"}}, {"type": "Feature", "geometry": {"type": "Point", "coordinates": [-92.50866538030476, 34.153465657507276]}, "properties": {"STREET": "1417 B Roberts Ave", "PERMIT_DATE": "2018-06-14", "PERMIT_NUMBER": "2018034187", "ADU_TYPE": null, "ACCESSORY_STRUCTURE_TYPE": null, "OWNER_NAME": "ABEGG, JAMES P. ET UX", "CONTRACTOR_BIZ_NAME_ORIGINAL": "Jbg Plumbing", "FEES_JSON": 76.72, "STATUS_NORMALIZED": "Inactive"}}, {"type": "Feature", "geometry": {"type": "Point", "coordinates": [-86.73789296974881, 36.17324462623628]}, "properties": {"STREET": "1807 Fatherland St", "PERMIT_DATE": "2018-06-22", "PERMIT_NUMBER": "2018034311", "ADU_TYPE": null, "ACCESSORY_STRUCTURE_TYPE": null, "OWNER_NAME": "GOWER, DONALD & ALLISON", "CONTRACTOR_BIZ_NAME_ORIGINAL": null, "FEES_JSON": 0.0, "STATUS_NORMALIZED": "In Review"}}, {"type": "Feature", "geometry": {"type": "Point", "coordinates": [-92.50866538030476, 34.153465657507276]}, "properties": {"STREET": "1231 Greenfield Ave", "PERMIT_DATE": "2018-06-21", "PERMIT_NUMBER": "2018035977", "ADU_TYPE": null, "ACCESSORY_STRUCTURE_TYPE": "garage", "OWNER_NAME": "DOUGLAS, WILLIAM E. ET UX", "CONTRACTOR_BIZ_NAME_ORIGINAL": "Onyx Group Inc, The", "FEES_JSON": 243.98, "STATUS_NORMALIZED": "In Review"}}, {"type": "Feature", "geometry": {"type": "Point", "coordinates": [-86.82698624943679, 36.13499490958283]}, "properties": {"STREET": "3629 Richland Ave", "PERMIT_DATE": "2018-06-25", "PERMIT_NUMBER": "2018036483", "ADU_TYPE": null, "ACCESSORY_STRUCTURE_TYPE": "garage", "OWNER_NAME": "KLEINE, JOSEPH", "CONTRACTOR_BIZ_NAME_ORIGINAL": "Ford, Mike Custom Builders Llc", "FEES_JSON": 600.09, "STATUS_NORMALIZED": "In Review"}}, {"type": "Feature", "geometry": {"type": "Point", "coordinates": [-86.80224107467423, 36.12533772205506]}, "properties": {"STREET": "2001 Sweetbriar Ave", "PERMIT_DATE": "2018-06-29", "PERMIT_NUMBER": "2018038011", "ADU_TYPE": null, "ACCESSORY_STRUCTURE_TYPE": null, "OWNER_NAME": "PRESLEY PROPERTIES, LLC", "CONTRACTOR_BIZ_NAME_ORIGINAL": null, "FEES_JSON": 0.0, "STATUS_NORMALIZED": "In Review"}}, {"type": "Feature", "geometry": {"type": "Point", "coordinates": [-86.72795669485839, 36.186463738514995]}, "properties": {"STREET": "21 Waters Ave", "PERMIT_DATE": "2018-08-17", "PERMIT_NUMBER": "2018039059", "ADU_TYPE": null, "ACCESSORY_STRUCTURE_TYPE": null, "OWNER_NAME": "EDWARDS-GRAY, HEATHER L. & GRAY, JASON RICHARD", "CONTRACTOR_BIZ_NAME_ORIGINAL": null, "FEES_JSON": 50.0, "STATUS_NORMALIZED": "Inactive"}}, {"type": "Feature", "geometry": {"type": "Point", "coordinates": [-86.79108761618966, 36.145909921513194]}, "properties": {"STREET": "1008 D Villa Pl", "PERMIT_DATE": "2024-06-13", "PERMIT_NUMBER": "2024054130", "ADU_TYPE": null, "ACCESSORY_STRUCTURE_TYPE": "garage", "OWNER_NAME": "LIBERTY PIKE PARTNERS, GP", "CONTRACTOR_BIZ_NAME_ORIGINAL": "Rhodes, Josh Plumbing", "FEES_JSON": 84.4, "STATUS_NORMALIZED": "Active"}}, {"type": "Feature", "geometry": {"type": "Point", "coordinates": [-92.50866538030476, 34.153465657507276]}, "properties": {"STREET": "719 A2 Hart Ave", "PERMIT_DATE": "2023-07-05", "PERMIT_NUMBER": "2022074620", "ADU_TYPE": null, "ACCESSORY_STRUCTURE_TYPE": null, "OWNER_NAME": "WEBB, AARON M.", "CONTRACTOR_BIZ_NAME_ORIGINAL": "Wtd4 Llc", "FEES_JSON": 1027.09, "STATUS_NORMALIZED": "In Review"}}, {"type": "Feature", "geometry": {"type": "Point", "coordinates": [-86.72409285944926, 36.18199364895561]}, "properties": {"STREET": "2305 K2 Eastland Ave", "PERMIT_DATE": "2024-03-13", "PERMIT_NUMBER": "2024022964", "ADU_TYPE": null, "ACCESSORY_STRUCTURE_TYPE": "garage", "OWNER_NAME": "T & M DEVELOPMENT, LLC", "CONTRACTOR_BIZ_NAME_ORIGINAL": "Rome Electrical Contractor, Llc", "FEES_JSON": 84.4, "STATUS_NORMALIZED": "In Review"}}, {"type": "Feature", "geometry": {"type": "Point", "coordinates": [-92.50866538030476, 34.153465657507276]}, "properties": {"STREET": "3704 B Whitland Ave", "PERMIT_DATE": "2019-12-11", "PERMIT_NUMBER": "2019075328", "ADU_TYPE": null, "ACCESSORY_STRUCTURE_TYPE": "garage", "OWNER_NAME": "BLOOMING, LANCE &  JESSICA BEUGEN", "CONTRACTOR_BIZ_NAME_ORIGINAL": "Catalyst Builders Inc", "FEES_JSON": 497.1, "STATUS_NORMALIZED": "Inactive"}}, {"type": "Feature", "geometry": {"type": "Point", "coordinates": [-86.84319559190452, 36.14408379369815]}, "properties": {"STREET": "4701 Utah Ave", "PERMIT_DATE": "2007-03-30", "PERMIT_NUMBER": "200714439", "ADU_TYPE": null, "ACCESSORY_STRUCTURE_TYPE": null, "OWNER_NAME": "HACKERMAN, ELAINE J.", "CONTRACTOR_BIZ_NAME_ORIGINAL": "Cooper Electric Inc", "FEES_JSON": 85.5, "STATUS_NORMALIZED": "In Review"}}, {"type": "Feature", "geometry": {"type": "Point", "coordinates": [-92.50866538030476, 34.153465657507276]}, "properties": {"STREET": "1231 B 5Th Ave N", "PERMIT_DATE": "2021-07-20", "PERMIT_NUMBER": "2021045771", "ADU_TYPE": null, "ACCESSORY_STRUCTURE_TYPE": "garage", "OWNER_NAME": "CREASON, JAMES B & JEREMY T", "CONTRACTOR_BIZ_NAME_ORIGINAL": "Keenan, Colm (company)", "FEES_JSON": 76.72, "STATUS_NORMALIZED": "In Review"}}, {"type": "Feature", "geometry": {"type": "Point", "coordinates": [-86.78916077973527, 36.12900018002762]}, "properties": {"STREET": "1200 Ashwood Ave", "PERMIT_DATE": "2015-09-07", "PERMIT_NUMBER": "201538395", "ADU_TYPE": null, "ACCESSORY_STRUCTURE_TYPE": "garage", "OWNER_NAME": "ROSZELL, TRENT W. & ELIZABETH S.", "CONTRACTOR_BIZ_NAME_ORIGINAL": "Keenan, Colm (company)", "FEES_JSON": 236.57, "STATUS_NORMALIZED": "In Review"}}, {"type": "Feature", "geometry": {"type": "Point", "coordinates": [-86.83910184893487, 36.14527490572734]}, "properties": {"STREET": "4311 Wyoming Ave", "PERMIT_DATE": "2002-08-29", "PERMIT_NUMBER": "200212398", "ADU_TYPE": null, "ACCESSORY_STRUCTURE_TYPE": null, "OWNER_NAME": "KARCHER, CHRISTOPHER & JILL", "CONTRACTOR_BIZ_NAME_ORIGINAL": "Slark Electric Llc", "FEES_JSON": 40.75, "STATUS_NORMALIZED": "In Review"}}, {"type": "Feature", "geometry": {"type": "Point", "coordinates": [-86.7925898561919, 36.17685218848141]}, "properties": {"STREET": "1321 B 7Th Ave N", "PERMIT_DATE": "2008-06-11", "PERMIT_NUMBER": "1641989", "ADU_TYPE": null, "ACCESSORY_STRUCTURE_TYPE": "porches, decks", "OWNER_NAME": "CARAVEL PROPERTIES, LLC", "CONTRACTOR_BIZ_NAME_ORIGINAL": "Straight Rate Plumbing & Drain", "FEES_JSON": 84.0, "STATUS_NORMALIZED": "In Review"}}, {"type": "Feature", "geometry": {"type": "Point", "coordinates": [-86.7976819073161, 36.12368249068422]}, "properties": {"STREET": "2703 Brightwood Ave", "PERMIT_DATE": "2024-02-21", "PERMIT_NUMBER": "2024015486", "ADU_TYPE": null, "ACCESSORY_STRUCTURE_TYPE": null, "OWNER_NAME": "PERRETT, KIMBERLY & BENJAMIN D.", "CONTRACTOR_BIZ_NAME_ORIGINAL": "Arthur The Plumber, Dba William Arthur Smotherman Iii", "FEES_JSON": 84.4, "STATUS_NORMALIZED": "In Review"}}, {"type": "Feature", "geometry": {"type": "Point", "coordinates": [-86.76427244558577, 36.18973395440865]}, "properties": {"STREET": "1024 Lischey Ave", "PERMIT_DATE": "2018-08-27", "PERMIT_NUMBER": "2018051147", "ADU_TYPE": null, "ACCESSORY_STRUCTURE_TYPE": "porches", "OWNER_NAME": "SIMONS, GAIL I. & ANTHONY J.", "CONTRACTOR_BIZ_NAME_ORIGINAL": "Hooper Electric", "FEES_JSON": 76.72, "STATUS_NORMALIZED": "In Review"}}, {"type": "Feature", "geometry": {"type": "Point", "coordinates": [-86.75369642501376, 36.171872535433444]}, "properties": {"STREET": "912 B Boscobel St", "PERMIT_DATE": "2024-08-06", "PERMIT_NUMBER": "2024070994", "ADU_TYPE": null, "ACCESSORY_STRUCTURE_TYPE": "garage", "OWNER_NAME": "L & H DEVELOPMENT GROUP, LLC", "CONTRACTOR_BIZ_NAME_ORIGINAL": "Music City Handymen Llc", "FEES_JSON": 110.28, "STATUS_NORMALIZED": "In Review"}}, {"type": "Feature", "geometry": {"type": "Point", "coordinates": [-86.73739068234092, 36.173194776417866]}, "properties": {"STREET": "1813 B Fatherland St", "PERMIT_DATE": "2012-04-26", "PERMIT_NUMBER": "201208408", "ADU_TYPE": null, "ACCESSORY_STRUCTURE_TYPE": null, "OWNER_NAME": "HEANEY, JAMES", "CONTRACTOR_BIZ_NAME_ORIGINAL": "K & M Construction, Llc", "FEES_JSON": 381.6, "STATUS_NORMALIZED": "Inactive"}}, {"type": "Feature", "geometry": {"type": "Point", "coordinates": [-86.77521242732244, 36.16084694467056]}, "properties": {"STREET": "120 3Rd Ave S", "PERMIT_DATE": "2016-01-27", "PERMIT_NUMBER": "201543329", "ADU_TYPE": null, "ACCESSORY_STRUCTURE_TYPE": null, "OWNER_NAME": "THIRD AVE SOUTH 120/122, LLC", "CONTRACTOR_BIZ_NAME_ORIGINAL": "Self Contractor Residential (see Applicant Information)", "FEES_JSON": 50.0, "STATUS_NORMALIZED": "In Review"}}, {"type": "Feature", "geometry": {"type": "Point", "coordinates": [-86.8398921281212, 36.1616245671772]}, "properties": {"STREET": "1006 44Th Ave N", "PERMIT_DATE": "2024-04-30", "PERMIT_NUMBER": "2024032337", "ADU_TYPE": null, "ACCESSORY_STRUCTURE_TYPE": "shed", "OWNER_NAME": "FAULKNER, LEVI T.", "CONTRACTOR_BIZ_NAME_ORIGINAL": "Tuff Shed Inc", "FEES_JSON": 70.59, "STATUS_NORMALIZED": "Active"}}, {"type": "Feature", "geometry": {"type": "Point", "coordinates": [-92.50866538030476, 34.153465657507276]}, "properties": {"STREET": "3629 B Brighton Rd", "PERMIT_DATE": "2023-04-24", "PERMIT_NUMBER": "2023019308", "ADU_TYPE": null, "ACCESSORY_STRUCTURE_TYPE": "garage", "OWNER_NAME": "BOCK, GEORGE IV & BRIDGET", "CONTRACTOR_BIZ_NAME_ORIGINAL": "Palmetto Construction Llc", "FEES_JSON": 1145.25, "STATUS_NORMALIZED": "In Review"}}, {"type": "Feature", "geometry": {"type": "Point", "coordinates": [-86.7046618154415, 36.100403605669285]}, "properties": {"STREET": "604 Bel Air Dr", "PERMIT_DATE": "2024-07-26", "PERMIT_NUMBER": "2024065609", "ADU_TYPE": null, "ACCESSORY_STRUCTURE_TYPE": "workshop", "OWNER_NAME": "HOMEOFCAPITAL LLC", "CONTRACTOR_BIZ_NAME_ORIGINAL": "Self Contractor Residential (see Applicant Information)", "FEES_JSON": 122.5, "STATUS_NORMALIZED": "Active"}}, {"type": "Feature", "geometry": {"type": "Point", "coordinates": [-86.75802826594702, 36.1904558912832]},